IATA,id,name,city,country,ICAO,latitude,longitude,altitude,timezone,dst,tz,type,source,CRIMINAL ACTORS (AVERAGE),MAFIA-STYLE GROUPS,CRIMINAL NETWORKS,STATE-EMBEDDED ACTORS,FOREIGN ACTORS,CRIMINAL MARKETS (AVERAGE),HUMAN TRAFFICKING,HUMAN SMUGGLING,ARMS TRAFFICKING,FLORA CRIMES,FAUNA CRIMES,"NON-RENEWABLE
NON-RENEWABLE RESOURCE CRIMES",HEROIN TRADE,COCAINE TRADE,CANNABIS TRADE,SYNTHETIC DRUG TRADE,RESILIENCE (AVERAGE),POLITICAL LEADERSHIP AND GOVERNANCE,GOVERNMENT TRANSPARENCY AND ACCOUNTABILITY,INTERNATIONAL COOPERATION,NATIONAL POLICIES AND LAWS,JUDICIAL SYSTEM AND DETENTION,LAW ENFORCEMENT,TERRITORIAL INTEGRITY,ANTI-MONEY LAUNDERING SYSTEMS,ECONOMIC REGULATORY CAPACITY,VICTIM AND WITNESS SUPPORT,PREVENTION,NON-STATE ACTORS,population,in_cites_2021,in_cites_2016,in_cites_2017,in_cites_2018,in_cites_2019,in_cites_2020,degree_full,between_full,close_full,eigen_full,pr_full,degree_in_full,degree_out_full,origin_count,transit_count,destination_count,seizure_count,incident_counts,binary_incident_observed,binary_origin_observed,binary_destination_observed,binary_transit_observed
AER,2965,Sochi International Airport,Sochi,russia,URSS,43.449902,39.9566,89,3,N,Europe/Moscow,airport,OurAirports,6.38,4.5,7.5,8.5,5,5,5.5,5.5,5,4,5,4.5,5,5.5,5,5.5,4.04,4,3,4.5,5.5,4,4.5,5.5,4,4,2.5,3.5,3.5,343334,1,0,0,0,0,0,0.007763975,3.982881977039932e-06,0.086598895,0.001129169,0.000250921,0.000517598,0.007246377,0,0,0,0,0,0,0,0,0
KZN,2990,Kazan International Airport,Kazan,russia,UWKD,55.60620117,49.27870178,411,3,N,Europe/Moscow,airport,OurAirports,6.38,4.5,7.5,8.5,5,5,5.5,5.5,5,4,5,4.5,5,5.5,5,5.5,4.04,4,3,4.5,5.5,4,4.5,5.5,4,4,2.5,3.5,3.5,1143535,1,0,0,0,0,0,0.010351966873706004,3.415212267510454e-06,0.086628644,0.001185728,0.000266165,0.001035197,0.00931677,0,0,0,0,0,0,0,0,0
ASF,2966,Astrakhan Airport,Astrakhan,russia,URWA,46.28329849,48.00630188,-65,4,N,Europe/Samara,airport,OurAirports,6.38,4.5,7.5,8.5,5,5,5.5,5.5,5,4,5,4.5,5,5.5,5,5.5,4.04,4,3,4.5,5.5,4,4.5,5.5,4,4,2.5,3.5,3.5,520339,1,0,0,0,0,0,0.004140787,1.0990346614735702e-06,0.086628644,0.001188561,0.000263498,0.001035197,0.00310559,0,0,0,0,0,0,0,0,0
MRV,2962,Mineralnyye Vody Airport,Mineralnye Vody,russia,URMM,44.22510147094727,43.08190155029297,1054,3,N,Europe/Moscow,airport,OurAirports,6.38,4.5,7.5,8.5,5,5,5.5,5.5,5,4,5,4.5,5,5.5,5,5.5,4.04,4,3,4.5,5.5,4,4.5,5.5,4,4,2.5,3.5,3.5,74141,1,0,0,0,0,0,0.007246377,1.6118592259690334e-05,0.086628644,0.001188703,0.000288273,0.001035197,0.00621118,0,0,0,0,0,0,0,0,0
CEK,2968,Chelyabinsk Balandino Airport,Chelyabinsk,russia,USCC,55.305801,61.5033,769,5,N,Asia/Yekaterinburg,airport,OurAirports,6.38,4.5,7.5,8.5,5,5,5.5,5.5,5,4,5,4.5,5,5.5,5,5.5,4.04,4,3,4.5,5.5,4,4.5,5.5,4,4,2.5,3.5,3.5,1202371,1,0,0,0,0,0,0.00621118,8.967667140970011e-07,0.086628644,0.001188561,0.000263498,0.001035197,0.005175983,0,0,0,0,0,0,0,0,0
OVB,4078,Tolmachevo Airport,Novosibirsk,russia,UNNT,55.01259995,82.65070343,365,7,N,Asia/Krasnoyarsk,airport,OurAirports,6.38,4.5,7.5,8.5,5,5,5.5,5.5,5,4,5,4.5,5,5.5,5,5.5,4.04,4,3,4.5,5.5,4,4.5,5.5,4,4,2.5,3.5,3.5,1473754,1,0,0,0,0,0,0.024327122,0.00058445,0.086987231,0.001297851,0.000377487,0.002070393,0.022256729,0,0,1,1,1,1,0,1,0
DME,4029,Domodedovo International Airport,Moscow,russia,UUDD,55.40879821777344,37.90629959106445,588,3,N,Europe/Moscow,airport,OurAirports,6.38,4.5,7.5,8.5,5,5,5.5,5.5,5,4,5,4.5,5,5.5,5,5.5,4.04,4,3,4.5,5.5,4,4.5,5.5,4,4,2.5,3.5,3.5,11979529,1,0,0,0,0,0,0.096273292,0.024114382510443837,0.11384920245456118,0.022543220661378156,0.000822959,0.007763975,0.088509317,5,2,9,8,18,1,1,1,1
NBC,6969,Begishevo Airport,Nizhnekamsk,russia,UWKE,55.564701080322266,52.09249877929688,643,3,N,Europe/Moscow,airport,OurAirports,6.38,4.5,7.5,8.5,5,5,5.5,5.5,5,4,5,4.5,5,5.5,5,5.5,4.04,4,3,4.5,5.5,4,4.5,5.5,4,4,2.5,3.5,3.5,234044,1,0,0,0,0,0,0.002587992,1.780373879369719e-07,0.086658414,0.001129169,0.000250921,0.000517598,0.002070393,0,0,0,0,0,0,0,0,0
UUA,6160,Bugulma Airport,Bugulma,russia,UWKB,54.63999938964844,52.801700592041016,991,3,N,Europe/Moscow,airport,OurAirports,6.38,4.5,7.5,8.5,5,5,5.5,5.5,5,4,5,4.5,5,5.5,5,5.5,4.04,4,3,4.5,5.5,4,4.5,5.5,4,4,2.5,3.5,3.5,84522,1,0,0,0,0,0,0.001035197,0,0.086688203,0.001129169,0.000250921,0.000517598,0.000517598,0,0,0,0,0,0,0,0,0
EGO,6156,Belgorod International Airport,Belgorod,russia,UUOB,50.64379883,36.59009933,735,3,N,Europe/Moscow,airport,OurAirports,6.38,4.5,7.5,8.5,5,5,5.5,5.5,5,4,5,4.5,5,5.5,5,5.5,4.04,4,3,4.5,5.5,4,4.5,5.5,4,4,2.5,3.5,3.5,356402,1,0,0,0,0,0,0.002070393,0,0.086658414,0.001129169,0.000250921,0.000517598,0.001552795,0,0,0,0,0,0,0,0,0
KGD,2952,Khrabrovo Airport,Kaliningrad,russia,UMKK,54.88999938964844,20.59259986877441,42,2,N,Europe/Kaliningrad,airport,OurAirports,6.38,4.5,7.5,8.5,5,5,5.5,5.5,5,4,5,4.5,5,5.5,5,5.5,4.04,4,3,4.5,5.5,4,4.5,5.5,4,4,2.5,3.5,3.5,431402,1,0,0,0,0,0,0.004140787,3.6722471639337122e-06,0.086747844,0.001185728,0.00032206,0.001035197,0.00310559,0,0,0,0,0,0,0,0,0
GYD,2922,Heydar Aliyev International Airport,Baku,azerbaijan,UBBB,40.46749877929688,50.04669952392578,10,4,E,Asia/Baku,airport,OurAirports,6,5.5,5.5,7.5,5.5,4.15,4.5,3,3,3.5,3.5,6,6,3,5,4,4.08,3.5,3.5,5.5,4,2.5,4,5,4.5,4,4,5,3.5,2293100,1,0,1,1,0,0,0.015527950310559008,1.4131150267598302e-05,0.086718014,0.001253718,0.000278818,0.001552795,0.013975155279503106,0,0,0,0,0,0,0,0,0
LED,2948,Pulkovo Airport,St. Petersburg,russia,ULLI,59.80030059814453,30.262500762939453,78,3,N,Europe/Moscow,airport,OurAirports,6.38,4.5,7.5,8.5,5,5,5.5,5.5,5,4,5,4.5,5,5.5,5,5.5,4.04,4,3,4.5,5.5,4,4.5,5.5,4,4,2.5,3.5,3.5,4879566,1,0,0,0,0,0,0.052277433,0.002899639,0.08716764,0.001724043,0.000545327,0.005693582,0.046583851,0,0,0,0,0,0,0,0,0
SVX,2975,Koltsovo Airport,Yekaterinburg,russia,USSS,56.74309921,60.80270004,764,5,N,Asia/Yekaterinburg,airport,OurAirports,6.38,4.5,7.5,8.5,5,5,5.5,5.5,5,4,5,4.5,5,5.5,5,5.5,4.04,4,3,4.5,5.5,4,4.5,5.5,4,4,2.5,3.5,3.5,1350136,1,0,0,0,0,0,0.026397515527950312,0.000785421,0.087227943,0.001585716,0.00036802,0.004140787,0.022256729,0,0,0,0,0,0,0,0,0
NJC,2972,Nizhnevartovsk Airport,Nizhnevartovsk,russia,USNN,60.94929885864258,76.48359680175781,177,5,N,Asia/Yekaterinburg,airport,OurAirports,6.38,4.5,7.5,8.5,5,5,5.5,5.5,5,4,5,4.5,5,5.5,5,5.5,4.04,4,3,4.5,5.5,4,4.5,5.5,4,4,2.5,3.5,3.5,251694,1,0,0,0,0,0,0.004140787,0.000503117,0.087047285,0.001330163,0.000479082,0.002070393,0.002070393,0,0,0,0,0,0,0,0,0
NUX,4364,Novy Urengoy Airport,Novy Urengoy,russia,USMU,66.06939697265625,76.52030181884766,210,5,N,Asia/Yekaterinburg,airport,OurAirports,6.38,4.5,7.5,8.5,5,5,5.5,5.5,5,4,5,4.5,5,5.5,5,5.5,4.04,4,3,4.5,5.5,4,4.5,5.5,4,4,2.5,3.5,3.5,114837,1,0,0,0,0,0,0.005693582,1.075939065827556e-05,0.087017248,0.001340498,0.000313112,0.002070393,0.003623188,0,0,0,0,0,0,0,0,0
BTK,2936,Bratsk Airport,Bratsk,russia,UIBB,56.370601654052734,101.697998,1610,8,N,Asia/Irkutsk,airport,OurAirports,6.38,4.5,7.5,8.5,5,5,5.5,5.5,5,4,5,4.5,5,5.5,5,5.5,4.04,4,3,4.5,5.5,4,4.5,5.5,4,4,2.5,3.5,3.5,246319,1,0,0,0,0,0,0.002070393,3.8048445891029592e-06,0.086718014,0.001194177,0.000258387,0.001035197,0.001035197,0,0,0,0,0,0,0,0,0
IKT,2937,Irkutsk Airport,Irkutsk,russia,UIII,52.26800156,104.3889999,1675,8,N,Asia/Irkutsk,airport,OurAirports,6.38,4.5,7.5,8.5,5,5,5.5,5.5,5,4,5,4.5,5,5.5,5,5.5,4.04,4,3,4.5,5.5,4,4.5,5.5,4,4,2.5,3.5,3.5,587225,1,0,0,0,0,0,0.010869565217391306,0.000371472,0.086777696,0.001253992,0.000368268,0.001552795,0.00931677,0,0,0,0,0,0,0,0,0
HTA,2935,Chita-Kadala Airport,Chita,russia,UIAA,52.026299,113.306,2272,9,N,Asia/Yakutsk,airport,OurAirports,6.38,4.5,7.5,8.5,5,5,5.5,5.5,5,4,5,4.5,5,5.5,5,5.5,4.04,4,3,4.5,5.5,4,4.5,5.5,4,4,2.5,3.5,3.5,324444,1,0,0,0,0,0,0.00310559,3.14479560752181e-07,0.08683746,0.001256988,0.000275786,0.001552795,0.001552795,1,0,0,0,1,1,1,0,0
KCK,6922,Kirensk Airport,Kirensk,russia,UIKK,57.773,108.064,840,8,N,Asia/Irkutsk,airport,OurAirports,6.38,4.5,7.5,8.5,5,5,5.5,5.5,5,4,5,4.5,5,5.5,5,5.5,4.04,4,3,4.5,5.5,4,4.5,5.5,4,4,2.5,3.5,3.5,11139,1,0,0,0,0,0,0.000517598,0,0.070152307,6.281107144305454e-05,0.000264225,0.000517598,0,0,0,0,0,0,0,0,0,0
ULK,9026,Lensk Airport,Lensk,russia,UERL,60.72060013,114.8259964,801,9,N,Asia/Yakutsk,airport,OurAirports,6.38,4.5,7.5,8.5,5,5,5.5,5.5,5,4,5,4.5,5,5.5,5,5.5,4.04,4,3,4.5,5.5,4,4.5,5.5,4,4,2.5,3.5,3.5,23479,1,0,0,0,0,0,0.000517598,0,0,8.998795916126649e-33,0.000246827,0,0.000517598,0,0,0,0,0,0,0,0,0
YKS,2923,Yakutsk Airport,Yakutsk,russia,UEEE,62.093299865722656,129.7709961,325,9,N,Asia/Yakutsk,airport,OurAirports,6.38,4.5,7.5,8.5,5,5,5.5,5.5,5,4,5,4.5,5,5.5,5,5.5,4.04,4,3,4.5,5.5,4,4.5,5.5,4,4,2.5,3.5,3.5,269601,1,0,0,0,0,0,0.007246377,0.000510494,0.08716764,0.001343344,0.000490868,0.002587992,0.004658385,0,0,0,0,0,0,0,0,0
MJZ,2925,Mirny Airport,Mirnyj,russia,UERR,62.534698486328125,114.03900146484376,1156,9,N,Asia/Yakutsk,airport,OurAirports,6.38,4.5,7.5,8.5,5,5,5.5,5.5,5,4,5,4.5,5,5.5,5,5.5,4.04,4,3,4.5,5.5,4,4.5,5.5,4,4,2.5,3.5,3.5,40000,1,0,0,0,0,0,0.002070393,0,0.087206575,0.001324275,0.000322162,0.002070393,0,0,0,0,0,0,0,0,0,0
AYP,2786,Coronel FAP Alfredo Mendivil Duarte Airport,Ayacucho,peru,SPHO,-13.15480042,-74.20439911,8917,-5,U,America/Lima,airport,OurAirports,6.5,6,8,7,5,6.2,7,6,5.5,7,5.5,9,3.5,9,5.5,4,4.58,3,5.5,5,6,6,5,5,4.5,4,3.5,3,4.5,180766,1,1,1,1,1,0,0.001035197,0,0.000517598,7.548737141238734e-26,0.000254116,0.000517598,0.000517598,0,0,0,0,0,0,0,0,0
LIM,2789,Jorge Chávez International Airport,Lima,peru,SPIM,-12.0219,-77.114305,113,-5,U,America/Lima,airport,OurAirports,6.5,6,8,7,5,6.2,7,6,5.5,7,5.5,9,3.5,9,5.5,4,4.58,3,5.5,5,6,6,5,5,4.5,4,3.5,3,4.5,7605742,1,1,1,1,1,0,0.028467908902691512,0.000507413,0.000517598,7.548737141238734e-26,0.000462951,0.000517598,0.027950310559006212,4,0,0,4,4,1,1,0,0
CUZ,2812,Alejandro Velasco Astete International Airport,Cuzco,peru,SPZO,-13.53569984,-71.938797,10860,-5,U,America/Lima,airport,OurAirports,6.5,6,8,7,5,6.2,7,6,5.5,7,5.5,9,3.5,9,5.5,4,4.58,3,5.5,5,6,6,5,5,4.5,4,3.5,3,4.5,428450,1,1,1,1,1,0,0.002587992,0,0.000690131,7.548737141238734e-26,0.000254116,0.000517598,0.002070393,0,0,0,0,0,0,0,0,0
PEM,2808,Padre Aldamiz International Airport,Puerto Maldonado,peru,SPTU,-12.61359978,-69.22859955,659,-5,U,America/Lima,airport,OurAirports,6.5,6,8,7,5,6.2,7,6,5.5,7,5.5,9,3.5,9,5.5,4,4.58,3,5.5,5,6,6,5,5,4.5,4,3.5,3,4.5,85024,1,1,1,1,1,0,0.001035197,0,0.001164596,1.5097473382597877e-25,0.000308147,0.001035197,0,0,0,0,0,0,0,0,0,0
HUU,6067,Alferez Fap David Figueroa Fernandini Airport,Huánuco,peru,SPNC,-9.878809929,-76.20480347,6070,-5,U,America/Lima,airport,OurAirports,6.5,6,8,7,5,6.2,7,6,5.5,7,5.5,9,3.5,9,5.5,4,4.58,3,5.5,5,6,6,5,5,4.5,4,3.5,3,4.5,196627,1,1,1,1,1,0,0.000517598,0,0.000690131,7.548737141238734e-26,0.000254116,0.000517598,0,0,0,0,0,0,0,0,0,0
IQT,2801,Coronel FAP Francisco Secada Vignetta International Airport,Iquitos,peru,SPQT,-3.784739971,-73.30879974,306,-5,U,America/Lima,airport,OurAirports,6.5,6,8,7,5,6.2,7,6,5.5,7,5.5,9,3.5,9,5.5,4,4.58,3,5.5,5,6,6,5,5,4.5,4,3.5,3,4.5,370962,1,1,1,1,1,0,0.001552795,2.680467859582083e-07,0.053179245769053765,3.7364618075919756e-07,0.000570284,0.001035197,0.000517598,0,1,0,0,1,1,0,0,1
PCL,2781,Cap FAP David Abenzur Rengifo International Airport,Pucallpa,peru,SPCL,-8.377940178,-74.57430267,513,-5,U,America/Lima,airport,OurAirports,6.5,6,8,7,5,6.2,7,6,5.5,7,5.5,9,3.5,9,5.5,4,4.58,3,5.5,5,6,6,5,5,4.5,4,3.5,3,4.5,326040,1,1,1,1,1,0,0.001035197,0,0.000690131,7.548737141238734e-26,0.000254116,0.000517598,0.000517598,0,0,0,0,0,0,0,0,0
TPP,2806,Cadete FAP Guillermo Del Castillo Paredes Airport,Tarapoto,peru,SPST,-6.508739948,-76.37319946,869,-5,U,America/Lima,airport,OurAirports,6.5,6,8,7,5,6.2,7,6,5.5,7,5.5,9,3.5,9,5.5,4,4.58,3,5.5,5,6,6,5,5,4.5,4,3.5,3,4.5,240453,1,1,1,1,1,0,0.001035197,0,0.001164596,1.5097473382597877e-25,0.000470241,0.001035197,0,0,0,0,0,0,0,0,0,0
ABJ,253,Port Bouet Airport,Abidjan,cote d'ivoire,DIAP,5.261390209197998,-3.926290035,21,0,N,Africa/Abidjan,airport,OurAirports,6.25,3,7,7,8,6.05,6.5,6.5,7,6,6.5,7.5,3.5,5,6,6,4.42,4.5,4,6,4.5,5.5,5,4,5,3.5,3.5,3,4.5,3677115,1,1,1,1,1,0,0.00931677,0,0,8.998795916126649e-33,0.000246827,0,0.00931677,1,0,0,0,1,1,1,0,0
OUA,246,Ouagadougou Airport,Ouagadougou,burkina faso,DFFD,12.3532,-1.51242,1037,0,N,Africa/Ouagadougou,airport,OurAirports,5.63,3.5,6.5,6.5,6,5.35,6,4,8,4,6,8.5,4,4,3,6,3.63,3.5,4,5.5,5,4,3,3,3,3,2.5,2,5,2453496,1,0,0,0,0,0,0.003623188,6.226016115025569e-07,0.000517598,2.159711019870396e-31,0.000258489,0.000517598,0.00310559,0,0,0,0,0,0,0,0,0
ACC,248,Kotoka International Airport,Accra,ghana,DGAA,5.605189800262451,-0.166786,205,0,N,Africa/Accra,airport,OurAirports,5.88,3,6.5,7.5,6.5,6.15,6.5,5,5,6.5,6,7.5,6,6.5,5.5,7,5.38,5.5,5.5,6.5,5,5,4.5,6,6,6,3.5,4,7,5055900,1,0,0,0,0,0,0.012422360248447206,2.4758864847443317e-05,0.000517598,2.159711019870396e-31,0.000258489,0.000517598,0.011904761904761906,5,0,0,0,5,1,1,0,0
BKO,1044,Modibo Keita International Airport,Bamako,mali,GABS,12.5335,-7.94994,1247,0,N,Africa/Bamako,airport,OurAirports,5.63,3,7,8.5,4,6.15,7,6,8,5,5.5,7.5,3,6,7,6.5,6,5,5,7,6.5,5.5,6,6,5.5,6,5.5,5.5,6,2713000,1,0,0,0,0,0,0.006728778,0.000515892,0.093260349,0.002925541,0.000378777,0.001552795,0.005175983,0,0,1,0,1,1,0,1,0
COO,245,Cadjehoun Airport,Cotonou,benin,DBBB,6.357230186462402,2.384350061416626,19,1,N,Africa/Porto-Novo,airport,OurAirports,5.25,1,6,6,8,5.25,6,4,5.5,6,5.5,5,4.5,6,4,6,3.54,4,4.5,4,3,3,4,3.5,3,4,3,2,4.5,2401067,1,0,0,0,0,0,0.004658385,1.627777058845838e-06,0.000517598,2.159711019870396e-31,0.000258489,0.000517598,0.004140787,1,0,0,1,1,1,1,0,0
LFW,298,Lomé-Tokoin Airport,Lome,togo,DXXX,6.165609836578369,1.2545100450515747,72,0,N,Africa/Lome,airport,OurAirports,5.75,1,7,7.5,7.5,4.9,6,3.5,4,5,6,6,3,5,6.5,4,4,3,3,5.5,4.5,3.5,4,4,3,4.5,4.5,4,4.5,837437,1,0,0,0,0,0,0.004658385,0.000110795,0.002070393,7.666974120539912e-30,0.000332169,0.002070393,0.002587992,1,0,0,0,1,1,1,0,0
NIM,280,Diori Hamani International Airport,Niamey,niger,DRRN,13.4815,2.18361,732,1,N,Africa/Niamey,airport,OurAirports,6.13,4,7,8.5,5,5.9,7,7,8,2,4.5,7.5,3,6,7,7,3.21,3.5,2.5,5.5,4,2.5,4,4,3,3,2,2,2.5,1026848,1,0,0,0,0,0,0.001552795,1.646841463237846e-06,0.000690131,2.4926664687670828e-30,0.000274307,0.000517598,0.001035197,0,0,0,0,0,0,0,0,0
BOG,2709,El Dorado International Airport,Bogota,colombia,SKBO,4.70159,-74.1469,8361,-5,U,America/Bogota,airport,OurAirports,8.13,9.5,9,7,7,7.2,7.5,7,8,6,7,9,5,9.5,8,5,5.83,7,5.5,9,7,5.5,6,4.5,6,5,3.5,4.5,6.5,7412566,1,0,0,0,0,0,0.037267080745341616,0.008978447,0.075186638,0.000148494,0.000994136,0.001552795,0.035714286,2,2,0,5,6,1,1,0,1
GYE,2673,José Joaquín de Olmedo International Airport,Guayaquil,ecuador,SEGU,-2.15741992,-79.88359833,19,-5,U,America/Guayaquil,airport,OurAirports,6.5,6.5,5.5,6.5,7.5,6,6,5.5,7.5,6,6,6.5,6,7,4,5.5,5.71,5,5.5,6,6.5,5.5,6,4.5,7,5.5,5,5,7,2698077,1,0,0,0,0,0,0.00931677,0.000576692,0.062358057229686695,7.831594432277855e-06,0.000281346,0.001552795,0.007763975,0,0,0,0,0,0,0,0,0
UIO,2688,Mariscal Sucre International Airport,Quito,ecuador,SEQM,-0.129166667,-78.3575,7841,-5,U,America/Guayaquil,airport,OurAirports,6.5,6.5,5.5,6.5,7.5,6,6,5.5,7.5,6,6,6.5,6,7,4,5.5,5.71,5,5.5,6,6.5,5.5,6,4.5,7,5.5,5,5,7,2011388,1,0,0,0,0,0,0.009834369,0.000576717,0.062358057229686695,7.831594432277855e-06,0.000282293,0.001552795,0.008281573,0,0,0,0,0,0,0,0,0
CLO,2715,Alfonso Bonilla Aragon International Airport,Cali,colombia,SKCL,3.54322,-76.3816,3162,-5,U,America/Bogota,airport,OurAirports,8.13,9.5,9,7,7,7.2,7.5,7,8,6,7,9,5,9.5,8,5,5.83,7,5.5,9,7,5.5,6,4.5,6,5,3.5,4.5,6.5,2227642,1,0,0,0,0,0,0.007246377,0.000194511,0.062388912,8.223961626157595e-06,0.0002973,0.002070393,0.005175983,0,0,0,0,0,0,0,0,0
SCY,6045,San Cristóbal Airport,San Cristóbal,ecuador,SEST,-0.910206,-89.617401,62,-6,U,Pacific/Galapagos,airport,OurAirports,6.5,6.5,5.5,6.5,7.5,6,6,5.5,7.5,6,6,6.5,6,7,4,5.5,5.71,5,5.5,6,6.5,5.5,6,4.5,7,5.5,5,5,7,6000,1,0,0,0,0,0,0.000517598,0,0.053320487,3.9236719387973974e-07,0.00026278,0.000517598,0,0,0,0,0,0,0,0,0,0
OCC,2670,Francisco De Orellana Airport,Coca,ecuador,SECO,-0.462886006,-76.98680115,834,-5,U,America/Guayaquil,airport,OurAirports,6.5,6.5,5.5,6.5,7.5,6,6,5.5,7.5,6,6,6.5,6,7,4,5.5,5.71,5,5.5,6,6.5,5.5,6,4.5,7,5.5,5,5,7,45163,1,0,0,0,0,0,0.000517598,0,0.053320487,3.9236719387973974e-07,0.000261834,0.000517598,0,0,0,0,0,0,0,0,0,0
BDS,1506,Brindisi – Salento Airport,Brindisi,italy,LIBR,40.6576,17.947001,47,1,E,Europe/Rome,airport,OurAirports,6.38,9,3,6.5,7,5.25,7,6.5,5.5,2.5,3.5,5.5,4.5,7.5,5,5,6.29,6.5,5,8.5,8,5,7.5,6.5,5.5,5,5.5,5.5,7,87141,1,1,1,1,1,0,0.009834369,0.000169753,0.095993903,0.003018189,0.00025651,0.000517598,0.00931677,0,0,0,0,0,0,0,0,0
ZRH,1678,Zürich Airport,Zurich,switzerland,LSZH,47.464699,8.54917,1416,1,E,Europe/Zurich,airport,OurAirports,4.38,4.5,4,1.5,7.5,4.3,5,3,6.5,1.5,3,7,2.5,5.5,5.5,3.5,7.13,9,6.5,7.5,6.5,7,7.5,8.5,5,6,8,6,8,379915,1,1,1,1,1,0,0.06884058,0.001487926,0.088513859,0.00150945,0.000270797,0.002070393,0.066770186,0,0,1,3,3,1,0,1,0
BOD,1264,Bordeaux-Mérignac Airport,Bordeaux,france,LFBD,44.82830048,-0.715556026,162,1,E,Europe/Paris,airport,OurAirports,5.63,6,6.5,3,7,5.7,6,6.5,6,4,5.5,4.5,6,6.5,6.5,5.5,6.83,6,7,8.5,7.5,6.5,7,5,8,8,5,6.5,7,235891,1,1,1,1,1,0,0.025879917184265012,0.004181234,0.097028081,0.006388059,0.000363048,0.001552795,0.024327122,0,0,0,0,0,0,0,0,0
BRS,490,Bristol Airport,Bristol,united kingdom,EGGD,51.382702,-2.71909,622,0,E,Europe/London,airport,OurAirports,5.38,4,6.5,3,8,4.4,6,5,3.5,2.5,4,2,4.5,6.5,4.5,5.5,7.88,8,7.5,8,8.5,8.5,7.5,8.5,6.5,7.5,7.5,7.5,9,463400,1,1,1,1,1,0,0.039337474120082816,0.000944016,0.097365245,0.021716659638847103,0.000390657,0.005693582,0.033643892,0,0,1,1,1,1,0,1,0
GVA,1665,Geneva Cointrin International Airport,Geneva,switzerland,LSGG,46.23809814453125,6.108950138092041,1411,1,E,Europe/Paris,airport,OurAirports,4.38,4.5,4,1.5,7.5,4.3,5,3,6.5,1.5,3,7,2.5,5.5,5.5,3.5,7.13,9,6.5,7.5,6.5,7,7.5,8.5,5,6,8,6,8,201741,1,1,1,1,1,0,0.050724637681159424,0.000592467,0.092473775,0.002849966,0.000281656,0.00310559,0.047619048,0,0,0,1,1,1,0,0,0
LPA,1054,Gran Canaria Airport,Gran Canaria,spain,GCLP,27.931900024414062,-15.38659954,78,0,E,Atlantic/Canary,airport,OurAirports,6.25,6,6.5,5,7.5,5.3,7,7,4,3.5,5,2,6.5,7,7,4,6.63,6,6,8,8,7,8,5.5,6.5,6,6.5,5,7,870595,1,1,1,1,1,0,0.045031056,0.004135445,0.10635849153810753,0.0330484,0.00051226,0.007246377,0.037784679,0,0,0,0,0,0,0,0,0
LCA,1197,Larnaca International Airport,Larnaca,cyprus,LCLK,34.875099182128906,33.624900817871094,8,2,E,Asia/Nicosia,airport,OurAirports,4.88,3.5,5,4,7,3.5,5.5,6,2.5,2.5,3,2,2,4.5,4,3,4.42,5,5,6.5,6,4,5.5,3,3,3.5,4,3.5,4,51468,1,1,1,1,1,0,0.025879917184265012,0.000154654,0.087107421,0.001370557,0.000265137,0.002070393,0.023809524,0,0,0,0,0,0,0,0,0
RMF,4197,Marsa Alam International Airport,Marsa Alam,egypt,HEMA,25.5571003,34.58369827,251,2,U,Africa/Cairo,airport,OurAirports,5.38,3,5.5,8,5,4.95,5.5,5.5,7,1,5,4,5.5,2,7,7,4.04,3.5,3,4.5,4.5,3.5,5,6,6,4.5,3,2.5,2.5,1918,1,0,0,0,0,0,0.001552795,0,0.071155752,7.560638797426355e-05,0.000248612,0.000517598,0.001035197,0,0,0,0,0,0,0,0,0
TFS,1056,Tenerife South Airport,Tenerife,spain,GCTS,28.04450035,-16.57250023,209,0,E,Atlantic/Canary,airport,OurAirports,6.25,6,6.5,5,7.5,5.3,7,7,4,3.5,5,2,6.5,7,7,4,6.63,6,6,8,8,7,8,5.5,6.5,6,6.5,5,7,966354,1,1,1,1,1,0,0.046066253,0.002066691,0.10935645422239938,0.036239155,0.000534042,0.00931677,0.036749482,0,0,0,0,0,0,0,0,0
ARN,737,Stockholm-Arlanda Airport,Stockholm,sweden,ESSA,59.65190125,17.91860008,137,1,E,Europe/Stockholm,airport,OurAirports,4.88,5.5,5.5,2.5,6,4.25,4.5,5.5,6,2,3.5,2,4,4.5,5,5.5,7.46,7,9,8.5,7,7,6.5,8,7.5,7.5,6,7,8.5,975551,1,1,1,1,1,0,0.054347826,0.002396977,0.084509378,0.002028629,0.000267241,0.002587992,0.051759834368530024,0,0,0,0,0,0,0,0,0
HAD,709,Halmstad Airport,Halmstad,sweden,ESMT,56.69110107421875,12.820199966430664,101,1,E,Europe/Stockholm,airport,OurAirports,4.88,5.5,5.5,2.5,6,4.25,4.5,5.5,6,2,3.5,2,4,4.5,5,5.5,7.46,7,9,8.5,7,7,6.5,8,7.5,7.5,6,7,8.5,70480,1,1,1,1,1,0,0.001035197,0,0.076719192,0.000396819,0.000390843,0.000517598,0.000517598,0,0,0,0,0,0,0,0,0
KRF,718,Kramfors Sollefteå Airport,Kramfors,sweden,ESNK,63.04859924316406,17.76889991760254,34,1,E,Europe/Stockholm,airport,OurAirports,4.88,5.5,5.5,2.5,6,4.25,4.5,5.5,6,2,3.5,2,4,4.5,5,5.5,7.46,7,9,8.5,7,7,6.5,8,7.5,7.5,6,7,8.5,5990,1,1,1,1,1,0,0.000517598,0,0.068666595,0.000101605,0.000249099,0.000517598,0,0,0,0,0,0,0,0,0,0
MHQ,442,Mariehamn Airport,Mariehamn,finland,EFMA,60.12220001,19.89819908,17,2,E,Europe/Mariehamn,airport,OurAirports,2.63,3,3,1.5,3,2.8,3,2.5,2.5,1,1.5,2,3.5,4,3.5,4.5,8.42,9,8.5,9,8,8,8,9,8.5,9,8,8,8,11677,1,1,1,1,1,0,0.001552795,0,0.068581992,0.000101605,0.000249099,0.000517598,0.001035197,0,0,0,0,0,0,0,0,0
OER,722,Örnsköldsvik Airport,Ornskoldsvik,sweden,ESNO,63.40829849243164,18.989999771118164,354,1,E,Europe/Stockholm,airport,OurAirports,4.88,5.5,5.5,2.5,6,4.25,4.5,5.5,6,2,3.5,2,4,4.5,5,5.5,7.46,7,9,8.5,7,7,6.5,8,7.5,7.5,6,7,8.5,32953,1,1,1,1,1,0,0.000517598,0,0.068666595,0.000101605,0.000249099,0.000517598,0,0,0,0,0,0,0,0,0,0
TRF,664,"Sandefjord Airport, Torp",Sandefjord,norway,ENTO,59.18669891,10.25860024,286,1,E,Europe/Oslo,airport,OurAirports,3.63,4.5,4,2,4,4,5,3.5,3.5,2.5,4,3.5,5,4.5,4,4.5,7.92,8,8.5,9,8.5,8,8.5,8,7,7.5,7.5,7,7.5,64345,1,1,0,1,0,0,0.019668737060041408,0.001044091,0.097327666,0.024735673007522538,0.000465503,0.005693582,0.013975155279503106,0,0,0,0,0,0,0,0,0
VBY,746,Visby Airport,Visby,sweden,ESSV,57.66279984,18.34620094,164,1,E,Europe/Stockholm,airport,OurAirports,4.88,5.5,5.5,2.5,6,4.25,4.5,5.5,6,2,3.5,2,4,4.5,5,5.5,7.46,7,9,8.5,7,7,6.5,8,7.5,7.5,6,7,8.5,24330,1,1,1,1,1,0,0.001552795,1.4979085097664583e-07,0.077856123,0.000498424,0.000393116,0.001035197,0.000517598,0,0,0,0,0,0,0,0,0
VXO,711,Växjö Kronoberg Airport,Vaxjo,sweden,ESMX,56.92910003662109,14.727999687194824,610,1,E,Europe/Stockholm,airport,OurAirports,4.88,5.5,5.5,2.5,6,4.25,4.5,5.5,6,2,3.5,2,4,4.5,5,5.5,7.46,7,9,8.5,7,7,6.5,8,7.5,7.5,6,7,8.5,66275,1,1,1,1,1,0,0.002070393,0.001509975,0.077904227,0.000498424,0.000393116,0.001035197,0.001035197,0,0,0,0,0,0,0,0,0
TKU,460,Turku Airport,Turku,finland,EFTU,60.51409912,22.26280022,161,2,E,Europe/Helsinki,airport,OurAirports,2.63,3,3,1.5,3,2.8,3,2.5,2.5,1,1.5,2,3.5,4,3.5,4.5,8.42,9,8.5,9,8,8,8,9,8.5,9,8,8,8,177326,1,1,1,1,1,0,0.003623188,6.640366523153087e-05,0.068656679,0.000106694,0.000355031,0.001035197,0.002587992,0,0,0,0,0,0,0,0,0
OSL,644,Oslo Lufthavn,Oslo,norway,ENGM,60.121,11.0502,681,1,E,Europe/Oslo,airport,OurAirports,3.63,4.5,4,2,4,4,5,3.5,3.5,2.5,4,3.5,5,4.5,4,4.5,7.92,8,8.5,9,8.5,8,8.5,8,7,7.5,7.5,7,7.5,697010,1,1,0,1,0,0,0.051759834368530024,0.005870503,0.10188928623711231,0.028474366040041325,0.001042724,0.007763975,0.043995859,0,0,0,0,0,0,0,0,0
MNL,2397,Ninoy Aquino International Airport,Manila,philippines,RPLL,14.5086,121.019997,75,8,N,Asia/Manila,airport,OurAirports,7.38,8,6,8,7.5,6.3,7,5,7.5,7,7.5,8,4,3.5,4.5,9,4.13,3,3,5,5,4.5,2,4,5,6,5,4,3,1652171,1,1,1,1,1,0,0.036231884057971016,0.004760707,0.099047912,0.003968603,0.00054661,0.002070393,0.034161490683229816,8,3,7,21,29,1,1,1,1
BXU,4200,Bancasi Airport,Butuan,philippines,RPME,8.9515,125.4788,141,8,N,Asia/Manila,airport,OurAirports,7.38,8,6,8,7.5,6.3,7,5,7.5,7,7.5,8,4,3.5,4.5,9,4.13,3,3,5,5,4.5,2,4,5,6,5,4,3,298378,1,1,1,1,1,0,0.001035197,0,0.077856123,0.000198803,0.000253868,0.000517598,0.000517598,0,0,0,0,0,0,0,0,0
CGY,14102,Laguindingan Airport,Cagayan de Oro City,philippines,RPMY,8.612203,124.456496,190,,,,airport,OurAirports,7.38,8,6,8,7.5,6.3,7,5,7.5,7,7.5,8,4,3.5,4.5,9,4.13,3,3,5,5,4.5,2,4,5,6,5,4,3,553966,1,1,1,1,1,0,0.001035197,0,0.077856123,0.000198803,0.000253868,0.000517598,0.000517598,0,0,1,0,1,1,0,1,0
DGT,2425,Sibulan Airport,Dumaguete,philippines,RPVD,9.333709717,123.3000031,15,8,N,Asia/Manila,airport,OurAirports,7.38,8,6,8,7.5,6.3,7,5,7.5,7,7.5,8,4,3.5,4.5,9,4.13,3,3,5,5,4.5,2,4,5,6,5,4,3,116392,1,1,1,1,1,0,0.001035197,0,0.077856123,0.000198803,0.000253868,0.000517598,0.000517598,0,0,0,0,0,0,0,0,0
GES,2402,General Santos International Airport,Romblon,philippines,RPMR,6.058000088,125.0960007,505,8,N,Asia/Manila,airport,OurAirports,7.38,8,6,8,7.5,6.3,7,5,7.5,7,7.5,8,4,3.5,4.5,9,4.13,3,3,5,5,4.5,2,4,5,6,5,4,3,308985,1,1,1,1,1,0,0.000517598,0,0,8.998795916126649e-33,0.000246827,0,0.000517598,0,0,0,0,0,0,0,0,0
KLO,2430,Kalibo International Airport,Kalibo,philippines,RPVK,11.67940044,122.3759995,14,8,N,Asia/Manila,airport,OurAirports,7.38,8,6,8,7.5,6.3,7,5,7.5,7,7.5,8,4,3.5,4.5,9,4.13,3,3,5,5,4.5,2,4,5,6,5,4,3,89127,1,1,1,1,1,0,0.001035197,0,0.077856123,0.000198803,0.000253868,0.000517598,0.000517598,0,0,0,0,0,0,0,0,0
LGP,4203,Legazpi City International Airport,Legazpi,philippines,RPLP,13.1575,123.735,66,8,N,Asia/Manila,airport,OurAirports,7.38,8,6,8,7.5,6.3,7,5,7.5,7,7.5,8,4,3.5,4.5,9,4.13,3,3,5,5,4.5,2,4,5,6,5,4,3,175843,1,1,1,1,1,0,0.000517598,0,0.077934998,0.000198803,0.000253868,0.000517598,0,0,0,0,0,0,0,0,0,0
MPH,2426,Godofredo P. Ramos Airport,Caticlan,philippines,RPVE,11.9245,121.954002,7,8,N,Asia/Manila,airport,OurAirports,7.38,8,6,8,7.5,6.3,7,5,7.5,7,7.5,8,4,3.5,4.5,9,4.13,3,3,5,5,4.5,2,4,5,6,5,4,3,8223,1,1,1,1,1,0,0.001035197,0,0.077856123,0.000198803,0.000253868,0.000517598,0.000517598,0,0,0,0,0,0,0,0,0
OZC,4204,Labo Airport,Ozamis,philippines,RPMO,8.178509712219238,123.84200286865234,75,8,N,Asia/Manila,airport,OurAirports,7.38,8,6,8,7.5,6.3,7,5,7.5,7,7.5,8,4,3.5,4.5,9,4.13,3,3,5,5,4.5,2,4,5,6,5,4,3,123137,1,1,1,1,1,0,0.001035197,0,0.077856123,0.000198803,0.000253868,0.000517598,0.000517598,0,0,0,0,0,0,0,0,0
PPS,2433,Puerto Princesa Airport,Puerto Princesa,philippines,RPVP,9.742119789123535,118.75900268554688,71,8,N,Asia/Manila,airport,OurAirports,7.38,8,6,8,7.5,6.3,7,5,7.5,7,7.5,8,4,3.5,4.5,9,4.13,3,3,5,5,4.5,2,4,5,6,5,4,3,210508,1,1,1,1,1,0,0.001035197,0,0.077856123,0.000198803,0.000253868,0.000517598,0.000517598,0,0,0,0,0,0,0,0,0
RXS,6026,Roxas Airport,Roxas City,philippines,RPVR,11.597700119018556,122.7519989013672,10,8,N,Asia/Manila,airport,OurAirports,7.38,8,6,8,7.5,6.3,7,5,7.5,7,7.5,8,4,3.5,4.5,9,4.13,3,3,5,5,4.5,2,4,5,6,5,4,3,147738,1,1,1,1,1,0,0.000517598,0,0.077934998,0.000198803,0.000253868,0.000517598,0,0,0,0,0,0,0,0,0,0
TUG,6021,Tuguegarao Airport,Tuguegarao,philippines,RPUT,17.64336768,121.7331505,70,8,N,Asia/Manila,airport,OurAirports,7.38,8,6,8,7.5,6.3,7,5,7.5,7,7.5,8,4,3.5,4.5,9,4.13,3,3,5,5,4.5,2,4,5,6,5,4,3,129539,1,1,1,1,1,0,0.000517598,0,0.077934998,0.000198803,0.000253868,0.000517598,0,0,0,0,0,0,0,0,0,0
ZAM,2404,Zamboanga International Airport,Zamboanga,philippines,RPMZ,6.922420024871826,122.05999755859376,33,8,N,Asia/Manila,airport,OurAirports,7.38,8,6,8,7.5,6.3,7,5,7.5,7,7.5,8,4,3.5,4.5,9,4.13,3,3,5,5,4.5,2,4,5,6,5,4,3,774407,1,1,1,1,1,0,0.001035197,0,0.077760094,0.000198803,0.000253868,0.000517598,0.000517598,0,0,0,0,0,0,0,0,0
AUX,7376,Araguaína Airport,Araguaina,brazil,SWGN,-7.22787,-48.240501,771,-3,S,America/Fortaleza,airport,OurAirports,6.5,7.5,6.5,8.5,3.5,5,5.5,5.5,5,4,5,4.5,5,5.5,5,5.5,5.04,3,4.5,7.5,4.5,3,5,5.5,6,6,5,4,6.5,183381,1,1,1,1,1,0,0.001035197,0,0.066854715,3.959070820945023e-05,0.000279269,0.000517598,0.000517598,0,0,0,0,0,0,0,0,0
PMW,4214,Brigadeiro Lysias Rodrigues Airport,Palmas,brazil,SBPJ,-10.29150009,-48.35699844,774,-3,S,America/Fortaleza,airport,OurAirports,6.5,7.5,6.5,8.5,3.5,5,5.5,5.5,5,4,5,4.5,5,5.5,5,5.5,5.04,3,4.5,7.5,4.5,3,5,5.5,6,6,5,4,6.5,51755,1,1,1,1,1,0,0.001552795,0,0.066854715,3.959070820945023e-05,0.000279269,0.000517598,0.001035197,0,0,0,0,0,0,0,0,0
BRA,7373,Barreiras Airport,Barreiras,brazil,SNBR,-12.07890034,-45.00899887,2447,-3,S,America/Fortaleza,airport,OurAirports,6.5,7.5,6.5,8.5,3.5,5,5.5,5.5,5,4,5,4.5,5,5.5,5,5.5,5.04,3,4.5,7.5,4.5,3,5,5.5,6,6,5,4,6.5,156975,1,1,1,1,1,0,0.001552795,0,0.065347495,1.667952655798911e-05,0.000261574,0.000517598,0.001035197,0,0,0,0,0,0,0,0,0
BSB,2531,Presidente Juscelino Kubistschek International Airport,Brasilia,brazil,SBBR,-15.86916733,-47.92083359,3497,-3,S,America/Sao_Paulo,airport,OurAirports,6.5,7.5,6.5,8.5,3.5,5,5.5,5.5,5,4,5,4.5,5,5.5,5,5.5,5.04,3,4.5,7.5,4.5,3,5,5.5,6,6,5,4,6.5,2562963,1,1,1,1,1,0,0.028985507246376815,0.004838352,0.08200845,0.000790344,0.001640389,0.006728778,0.022256729,0,1,1,2,2,1,0,1,1
SSA,2621,Deputado Luiz Eduardo Magalhães International Airport,Salvador,brazil,SBSV,-12.9086113,-38.32249832,64,-3,S,America/Fortaleza,airport,OurAirports,6.5,7.5,6.5,8.5,3.5,5,5.5,5.5,5,4,5,4.5,5,5.5,5,5.5,5.04,3,4.5,7.5,4.5,3,5,5.5,6,6,5,4,6.5,2886698,1,1,1,1,1,0,0.016045548654244308,0.001131249,0.07975205,0.00033298,0.000468225,0.002070393,0.013975155279503106,0,0,0,0,0,0,0,0,0
OPS,7367,Presidente João Batista Figueiredo Airport,Sinop,brazil,SWSI,-11.88500023,-55.58610916,1227,-4,S,America/Campo_Grande,airport,OurAirports,6.5,7.5,6.5,8.5,3.5,5,5.5,5.5,5,4,5,4.5,5,5.5,5,5.5,5.04,3,4.5,7.5,4.5,3,5,5.5,6,6,5,4,6.5,146005,1,1,1,1,1,0,0.001035197,0,0.066890181,3.959070820945023e-05,0.000279269,0.000517598,0.000517598,0,0,0,0,0,0,0,0,0
RAO,2613,Leite Lopes Airport,Ribeirao Preto,brazil,SBRP,-21.13638878,-47.77666855,1806,-3,S,America/Sao_Paulo,airport,OurAirports,6.5,7.5,6.5,8.5,3.5,5,5.5,5.5,5,4,5,4.5,5,5.5,5,5.5,5.04,3,4.5,7.5,4.5,3,5,5.5,6,6,5,4,6.5,711825,1,1,1,1,1,0,0.00621118,3.0759196977386464e-05,0.079726836,0.000332145,0.000356992,0.001552795,0.004658385,0,0,0,0,0,0,0,0,0
CAC,2535,Cascavel Airport,Cascavel,brazil,SBCA,-25.00029945,-53.50080109,2473,-3,S,America/Sao_Paulo,airport,OurAirports,6.5,7.5,6.5,8.5,3.5,5,5.5,5.5,5,4,5,4.5,5,5.5,5,5.5,5.04,3,4.5,7.5,4.5,3,5,5.5,6,6,5,4,6.5,332333,1,1,1,1,1,0,0.002587992,2.5736242292854734e-05,0.079500625,0.000292554,0.000324549,0.001035197,0.001552795,0,0,0,0,0,0,0,0,0
GRU,2564,Guarulhos - Governador André Franco Montoro International Airport,Sao Paulo,brazil,SBGR,-23.43555641,-46.47305679,2459,-3,S,America/Sao_Paulo,airport,OurAirports,6.5,7.5,6.5,8.5,3.5,5,5.5,5.5,5,4,5,4.5,5,5.5,5,5.5,5.04,3,4.5,7.5,4.5,3,5,5.5,6,6,5,4,6.5,12325232,1,1,1,1,1,0,0.047101449,0.009630466,0.085252192,0.000719341,0.000838015,0.006728778,0.040372670807453416,0,4,1,5,7,1,0,1,1
CGB,2548,Marechal Rondon Airport,Cuiaba,brazil,SBCY,-15.65289974,-56.11669922,617,-4,S,America/Campo_Grande,airport,OurAirports,6.5,7.5,6.5,8.5,3.5,5,5.5,5.5,5,4,5,4.5,5,5.5,5,5.5,5.04,3,4.5,7.5,4.5,3,5,5.5,6,6,5,4,6.5,618124,1,1,1,1,1,0,0.00931677,0.001257471,0.076859489,0.000263701,0.000560927,0.002070393,0.007246377,0,0,0,0,0,0,0,0,0
GYN,2562,Santa Genoveva Airport,Goiania,brazil,SBGO,-16.63199997,-49.22069931,2450,-3,S,America/Sao_Paulo,airport,OurAirports,6.5,7.5,6.5,8.5,3.5,5,5.5,5.5,5,4,5,4.5,5,5.5,5,5.5,5.04,3,4.5,7.5,4.5,3,5,5.5,6,6,5,4,6.5,1536097,1,1,1,1,1,0,0.00621118,3.080530209058046e-05,0.076906369,0.000293547,0.000509974,0.00310559,0.00310559,0,0,0,0,0,0,0,0,0
CGR,2538,Campo Grande Airport,Campo Grande,brazil,SBCG,-20.46870041,-54.67250061,1833,-4,S,America/Campo_Grande,airport,OurAirports,6.5,7.5,6.5,8.5,3.5,5,5.5,5.5,5,4,5,4.5,5,5.5,5,5.5,5.04,3,4.5,7.5,4.5,3,5,5.5,6,6,5,4,6.5,796252,1,1,1,1,1,0,0.005693582,0.00018838,0.080132184,0.000381388,0.000400199,0.002587992,0.00310559,0,0,0,0,0,0,0,0,0
DOU,7380,Dourados Airport,Dourados,brazil,SSDO,-22.2019,-54.926601,1503,-4,S,America/Campo_Grande,airport,OurAirports,6.5,7.5,6.5,8.5,3.5,5,5.5,5.5,5,4,5,4.5,5,5.5,5,5.5,5.04,3,4.5,7.5,4.5,3,5,5.5,6,6,5,4,6.5,225495,1,1,1,1,1,0,0.000517598,0,0.06915479,3.60342845414455e-05,0.000255963,0.000517598,0,0,0,0,0,0,0,0,0,0
GIG,2560,Rio Galeão – Tom Jobim International Airport,Rio De Janeiro,brazil,SBGL,-22.80999947,-43.25055695,28,-3,S,America/Sao_Paulo,airport,OurAirports,6.5,7.5,6.5,8.5,3.5,5,5.5,5.5,5,4,5,4.5,5,5.5,5,5.5,5.04,3,4.5,7.5,4.5,3,5,5.5,6,6,5,4,6.5,6747815,1,1,1,1,1,0,0.027432712215320912,0.005887029,0.082437392,0.000666055,0.000710593,0.006728778,0.020703933747412008,0,1,2,1,3,1,0,1,1
UBA,2635,Mário de Almeida Franco Airport,Uberaba,brazil,SBUR,-19.76472282,-47.96611023,2655,-3,S,America/Sao_Paulo,airport,OurAirports,6.5,7.5,6.5,8.5,3.5,5,5.5,5.5,5,4,5,4.5,5,5.5,5,5.5,5.04,3,4.5,7.5,4.5,3,5,5.5,6,6,5,4,6.5,337092,1,1,1,1,1,0,0.002070393,2.2261211897801078e-07,0.076649235,0.000222127,0.000290962,0.001035197,0.001035197,0,0,0,0,0,0,0,0,0
UDI,2633,Ten. Cel. Aviador César Bombonato Airport,Uberlandia,brazil,SBUL,-18.883612,-48.225277,3094,-3,S,America/Sao_Paulo,airport,OurAirports,6.5,7.5,6.5,8.5,3.5,5,5.5,5.5,5,4,5,4.5,5,5.5,5,5.5,5.04,3,4.5,7.5,4.5,3,5,5.5,6,6,5,4,6.5,699097,1,1,1,1,1,0,0.004140787,4.6796589543418847e-07,0.076859489,0.000293059,0.000429423,0.002587992,0.001552795,0,0,0,0,0,0,0,0,0
VDC,6039,Vitória da Conquista Airport,Vitória Da Conquista,brazil,SBQV,-14.86279964,-40.86309814,3002,-3,S,America/Fortaleza,airport,OurAirports,6.5,7.5,6.5,8.5,3.5,5,5.5,5.5,5,4,5,4.5,5,5.5,5,5.5,5.04,3,4.5,7.5,4.5,3,5,5.5,6,6,5,4,6.5,341128,1,1,1,1,1,0,0.001552795,0,0.069260089,5.271381109943461e-05,0.000270711,0.001035197,0.000517598,0,0,0,0,0,0,0,0,0
SJP,2619,Prof. Eribelto Manoel Reino State Airport,Sao Jose Do Rio Preto,brazil,SBSR,-20.8166008,-49.40650177,1784,-3,S,America/Sao_Paulo,airport,OurAirports,6.5,7.5,6.5,8.5,3.5,5,5.5,5.5,5,4,5,4.5,5,5.5,5,5.5,5.04,3,4.5,7.5,4.5,3,5,5.5,6,6,5,4,6.5,464983,1,1,1,1,1,0,0.00310559,4.6796589543418847e-07,0.076859489,0.000274926,0.000357475,0.002070393,0.001035197,0,0,0,0,0,0,0,0,0
BRL,5726,Southeast Iowa Regional Airport,Burlington,united states,KBRL,40.783199310302734,-91.12550354,698,-6,A,America/Chicago,airport,OurAirports,5.5,5,6.5,5,5.5,5.5,5.5,4.5,6.5,2.5,5.5,4.5,6.5,7,5,7.5,6.58,4.5,5.5,7,6.5,6,8,6.5,6.5,8,7,6,7.5,38884,1,1,1,0,0,0,0.000517598,0,0,8.998795916126649e-33,0.000246827,0,0.000517598,0,0,0,0,0,0,0,0,0
ORD,3830,Chicago O'Hare International Airport,Chicago,united states,KORD,41.9786,-87.9048,672,-6,A,America/Chicago,airport,OurAirports,5.5,5,6.5,5,5.5,5.5,5.5,4.5,6.5,2.5,5.5,4.5,6.5,7,5,7.5,6.58,4.5,5.5,7,6.5,6,8,6.5,6.5,8,7,6,7.5,2705994,1,1,1,0,0,0,0.09679089,0.011234292540023852,0.10749189404810441,0.010726731047986209,0.000562345,0.005175983,0.091614907,0,1,1,2,2,1,0,1,1
STL,3678,St Louis Lambert International Airport,St. Louis,united states,KSTL,38.748697,-90.370003,618,-6,A,America/Chicago,airport,OurAirports,5.5,5,6.5,5,5.5,5.5,5.5,4.5,6.5,2.5,5.5,4.5,6.5,7,5,7.5,6.58,4.5,5.5,7,6.5,6,8,6.5,6.5,8,7,6,7.5,302838,1,1,1,0,0,0,0.025879917184265012,0.000408979,0.10050856254956277,0.007491665,0.000268427,0.001552795,0.024327122,0,0,0,0,0,0,0,0,0
DEC,4042,Decatur Airport,Decatur,united states,KDEC,39.834598541259766,-88.86569977,682,-6,A,America/Chicago,airport,OurAirports,5.5,5,6.5,5,5.5,5.5,5.5,4.5,6.5,2.5,5.5,4.5,6.5,7,5,7.5,6.58,4.5,5.5,7,6.5,6,8,6.5,6.5,8,7,6,7.5,71290,1,1,1,0,0,0,0.000517598,0,0.083053881,0.000537372,0.000249528,0.000517598,0,0,0,0,0,0,0,0,0,0
JBR,3591,Jonesboro Municipal Airport,Jonesboro,united states,KJBR,35.83169937133789,-90.64640045,262,-6,A,America/Chicago,airport,OurAirports,5.5,5,6.5,5,5.5,5.5,5.5,4.5,6.5,2.5,5.5,4.5,6.5,7,5,7.5,6.58,4.5,5.5,7,6.5,6,8,6.5,6.5,8,7,6,7.5,76990,1,1,1,0,0,0,0.000517598,0,0.078833874,0.000375322,0.000251685,0.000517598,0,0,0,0,0,0,0,0,0,0
KTN,3808,Ketchikan International Airport,Ketchikan,united states,PAKT,55.35559845,-131.7140045,89,-9,A,America/Anchorage,airport,OurAirports,5.5,5,6.5,5,5.5,5.5,5.5,4.5,6.5,2.5,5.5,4.5,6.5,7,5,7.5,6.58,4.5,5.5,7,6.5,6,8,6.5,6.5,8,7,6,7.5,8289,1,1,1,0,0,0,0.000517598,0,0.000517598,2.159711019870396e-31,0.000456757,0.000517598,0,0,0,0,0,0,0,0,0,0
LOS,273,Murtala Muhammed International Airport,Lagos,nigeria,DNMM,6.5773701667785645,3.321160078048706,135,1,N,Africa/Lagos,airport,OurAirports,7.25,5.5,9,7.5,7,5,5.5,5.5,5,4,5,4.5,5,5.5,5,5.5,5.5,5.5,5,7,7,4.5,4.5,4.5,5,6.5,5,5,6.5,7937932,1,1,1,1,1,0,0.016563146997929608,0.001213532,0.084993591,0.000886171,0.000341793,0.001552795,0.015010351966873708,6,2,0,4,10,1,1,0,1
ROB,1063,Roberts International Airport,Monrovia,liberia,GLRB,6.23379,-10.3623,31,0,N,Africa/Monrovia,airport,OurAirports,5,3,6,6,5,5.1,6,3,4.5,5.5,6,6.5,5,5.5,6,3,6,5,5,7,6.5,5.5,6,6,5.5,6,5.5,5.5,6,421053,1,0,0,0,0,0,0.00310559,1.727703865756845e-06,0.001035197,2.6996387748379956e-30,0.000268048,0.001035197,0.002070393,2,0,0,0,2,1,1,0,0
BCN,1218,Barcelona International Airport,Barcelona,spain,LEBL,41.2971,2.07846,12,1,E,Europe/Madrid,airport,OurAirports,6.25,6,6.5,5,7.5,5.3,7,7,4,3.5,5,2,6.5,7,7,4,6.63,6,6,8,8,7,8,5.5,6.5,6,6.5,5,7,1602386,1,1,1,1,1,0,0.086956522,0.011253201221821725,0.11118870521907098,0.039438233,0.000578744,0.011904761904761906,0.07505176,0,0,0,1,1,1,0,0,0
BJL,1050,Banjul International Airport,Banjul,gambia,GBYD,13.338000297546388,-16.6522007,95,0,N,Africa/Banjul,airport,OurAirports,4.5,1,6.5,6.5,4,5.15,7,5,2.5,7,3.5,4.5,4.5,6.5,7,4,5,5,5,4.5,5,5,5.5,6.5,5.5,5.5,2.5,3.5,6.5,31301,1,0,0,0,0,0,0.00310559,0.000281983,0.085137064,0.003630584,0.000256194,0.001035197,0.002070393,0,0,0,0,0,0,0,0,0
FNA,1059,Lungi International Airport,Freetown,sierra leone,GFLL,8.61644,-13.1955,84,0,N,Africa/Freetown,airport,OurAirports,5.75,3.5,5.5,7,7,5.05,5,4,3.5,6.5,6.5,6.5,2,4.5,7,5,6,5,5,7,6.5,5.5,6,6,5.5,6,5.5,5.5,6,1055964,1,0,0,0,0,0,0.005175983,0.000133455,0.072694143,0.000226228,0.000389542,0.002587992,0.002587992,1,0,0,0,1,1,1,0,0
CKY,4162,Conakry International Airport,Conakry,guinea,GUCY,9.57689,-13.612,72,0,N,Africa/Conakry,airport,OurAirports,5.25,1,5,8,7,5.15,7,3,6,4.5,6,6.5,2.5,7,4.5,4.5,2.83,2,3,4,3.5,3,3.5,3,3,3,1.5,1.5,3,1660973,1,1,1,1,1,1,0.002587992,8.988354819161147e-07,0.074213062,0.000146546,0.000290716,0.001035197,0.001552795,1,0,0,0,1,1,1,0,0
OXB,5665,Osvaldo Vieira International Airport,Bissau,guinea-bissau,GGOV,11.894800186157228,-15.65369987,129,0,N,Africa/Bissau,airport,OurAirports,6,1,8,8.5,6.5,4.9,5.5,2.5,5.5,8.5,5.5,1,5,8,5.5,2,2.42,2,2.5,3,3,3,3,3,2.5,1.5,1,1.5,3,492004,1,0,0,0,0,0,0.001552795,0,0.068975925,0.000181839,0.000301305,0.000517598,0.001035197,0,0,0,0,0,0,0,0,0
DLA,897,Douala International Airport,Douala,cameroon,FKKD,4.006080151,9.719479561,33,1,N,Africa/Douala,airport,OurAirports,6.38,4,7.5,8,6,5,5.5,5.5,5,4,5,4.5,5,5.5,5,5.5,3.13,2,1.5,5,4.5,2.5,4,2,3.5,2.5,2.5,2.5,5,2768400,1,0,0,0,0,0,0.00621118,1.9530077671951273e-05,0.078000613,0.000270702,0.000314338,0.001552795,0.004658385,2,3,0,3,5,1,1,0,1
LGW,502,London Gatwick Airport,London,united kingdom,EGKK,51.148102,-0.190278,202,0,E,Europe/London,airport,OurAirports,5.38,4,6.5,3,8,4.4,6,5,3.5,2.5,4,2,4.5,6.5,4.5,5.5,7.88,8,7.5,8,8.5,8.5,7.5,8.5,6.5,7.5,7.5,7.5,9,8961989,1,1,1,1,1,0,0.086956522,0.007497022,0.10560133309750963,0.021655590036403067,0.000608218,0.008799172,0.07815735,2,0,3,4,6,1,1,1,0
YUL,146,Montreal / Pierre Elliott Trudeau International Airport,Montreal,canada,CYUL,45.47060013,-73.74079895,118,-5,A,America/Toronto,airport,OurAirports,3.88,5,4,2,4.5,3.45,3.5,4,2.5,2,3,3,5,3.5,3,5,7.25,7.5,7,8,8,7,7,6,6.5,7.5,8.5,6,8,1704694,1,1,0,1,0,0,0.042960663,0.00694932,0.11104182449883443,0.011964319,0.000404628,0.005175983,0.037784679,0,0,0,1,1,1,0,0,0
YQB,111,Quebec Jean Lesage International Airport,Quebec,canada,CYQB,46.7911,-71.393303,244,-5,A,America/Toronto,airport,OurAirports,3.88,5,4,2,4.5,3.45,3.5,4,2.5,2,3,3,5,3.5,3,5,7.25,7.5,7,8,8,7,7,6,6.5,7.5,8.5,6,8,8164360,1,1,0,1,0,0,0.00621118,0.000333749,0.10622408737862384,0.007439141,0.000367402,0.002070393,0.004140787,0,0,0,0,0,0,0,0,0
YZV,202,Sept-Îles Airport,Sept-iles,canada,CYZV,50.22330093383789,-66.26560211,180,-5,A,America/Toronto,airport,OurAirports,3.88,5,4,2,4.5,3.45,3.5,4,2.5,2,3,3,5,3.5,3,5,7.25,7.5,7,8,8,7,7,6,6.5,7.5,8.5,6,8,28534,1,1,0,1,0,0,0.002587992,1.621396004371856e-05,0.085022247,0.000971963,0.000290598,0.001035197,0.001552795,0,0,0,0,0,0,0,0,0
JIB,4119,Djibouti-Ambouli Airport,Djibouti,djibouti,HDAM,11.547300338745115,43.15950012207031,49,3,U,Africa/Djibouti,airport,OurAirports,4.38,1.5,5,5,6,3.6,6,7,6,2,4,2,2.5,1.5,3.5,1.5,4.5,4.5,3,6.5,5.5,4,4,6,5,5.5,3,4,3,973560,1,0,0,0,0,0,0.002587992,0,0,8.998795916126649e-33,0.000246827,0,0.002587992,0,0,0,0,0,0,0,0,0
DXB,2188,Dubai International Airport,Dubai,united arab emirates,OMDB,25.25279999,55.36439896,62,4,U,Asia/Dubai,airport,OurAirports,4.75,1,6,6,6,6.75,8.5,6.5,6.5,5.5,7.5,6,7,6,6.5,7.5,5.33,5.5,5,5.5,5.5,5.5,6,5.5,4,5.5,6.5,6.5,3,3331420,1,1,1,1,1,0,0.086438923,0.011951801523888679,0.1076295277152595,0.010046423154582502,0.000614563,0.011904761904761906,0.074534161,7,15,5,1,26,1,1,1,1
JED,2072,King Abdulaziz International Airport,Jeddah,saudi arabia,OEJN,21.6796,39.156502,48,3,U,Asia/Riyadh,airport,OurAirports,5.13,3,6.5,8,3,6.9,8.5,7.5,8,5,7,7,6.5,5.5,6.5,7.5,4.29,3,3.5,5,4.5,3,4.5,5,5.5,5,4.5,5,3,3976000,1,0,0,0,0,0,0.039337474120082816,0.000774478,0.09093977,0.001929418,0.000305516,0.002587992,0.036749482,0,0,0,0,0,0,0,0,0
MGQ,5687,Aden Adde International Airport,Mogadishu,somalia,HCMM,2.014440059661865,45.30469894,29,3,U,Africa/Mogadishu,airport,OurAirports,7.13,9.5,7.5,7,4.5,4.45,8,7.5,8.5,6,4.5,2,2,2,2,2,6,5,5,7,6.5,5.5,6,6,5.5,6,5.5,5.5,6,2120000,1,0,0,1,1,1,0.001552795,0.00050647,0.077904227,0.000222766,0.000603063,0.000517598,0.001035197,0,0,0,0,0,0,0,0,0
NBO,4059,Jomo Kenyatta International Airport,Nairobi,kenya,HKJK,-1.319239974,36.92779922,5330,3,N,Africa/Nairobi,airport,OurAirports,7.25,7,7.5,8,6.5,5,5.5,5.5,5,4,5,4.5,5,5.5,5,5.5,5.21,5,4.5,7,6,5.5,4.5,6,6,5,3,3.5,6.5,4397073,1,0,0,0,0,0,0.030020703933747415,0.004556165,0.099281883,0.005404201,0.001367002,0.008799172,0.021221532,7,17,0,13,26,1,1,0,1
BKK,3885,Suvarnabhumi Airport,Bangkok,thailand,VTBS,13.681099891662598,100.74700164794922,5,7,U,Asia/Bangkok,airport,OurAirports,5.13,1.5,5,6.5,7.5,5,5.5,5.5,5,4,5,4.5,5,5.5,5,5.5,4.67,5,4.5,6,5.5,4,5,4,4.5,4.5,4.5,5,3.5,8280925,1,1,1,1,1,0,0.061076605,0.011354152891439389,0.11288092365123231,0.018667243123733347,0.001201927,0.009834369,0.051242236,30,14,10,14,59,1,1,1,1
SIN,3316,Singapore Changi Airport,Singapore,singapore,WSSS,1.35019,103.994003,22,8,N,Asia/Singapore,airport,OurAirports,3,3,3.5,1.5,4,3.25,5.5,2.5,2,2,5,1.5,4,3,2,5,7.71,7.5,7.5,9,8.5,9,9,8,7,8,7,9,3,5703569,1,1,1,1,1,0,0.051242236,0.005628105,0.10640336853875652,0.011058506,0.000774629,0.006728778,0.044513458,4,9,12,7,26,1,1,1,1
DRW,3999,Darwin International Airport,Darwin,australia,YPDN,-12.41469955,130.8769989013672,103,9.5,N,Australia/Darwin,airport,OurAirports,4.25,5,6,2,4,3.75,3.5,3,3.5,3,3.5,2,3.5,5,3.5,7,7.96,8,8.5,9,8,8,8,9,7,7,7.5,7.5,8,147255,1,1,0,1,1,0,0.008281573,0.000218289,0.088763106,0.002174574,0.000301187,0.002070393,0.00621118,2,0,0,2,2,1,1,0,0
HAK,4120,Haikou Meilan International Airport,Haikou,china,ZJHK,19.93490028381348,110.45899963378906,75,8,U,Asia/Shanghai,airport,OurAirports,6.13,7,7.5,7,3,5.9,6.5,6,2.5,8.5,9,4.5,6.5,3.5,4,8,5.46,6,4,6,7,5,5.5,7,6,7,4,6,2,2046189,1,1,1,1,1,0,0.019151138716356108,0.000632042,0.097290117,0.008465163,0.000459047,0.002587992,0.016563146997929608,0,0,1,1,1,1,0,1,0
HGH,3386,Hangzhou Xiaoshan International Airport,Hangzhou,china,ZSHC,30.22949981689453,120.43399810791016,23,8,U,Asia/Shanghai,airport,OurAirports,6.13,7,7.5,7,3,5.9,6.5,6,2.5,8.5,9,4.5,6.5,3.5,4,8,5.46,6,4,6,7,5,5.5,7,6,7,4,6,2,10360000,1,1,1,1,1,0,0.023809524,0.001165495,0.11192897622585574,0.019394309,0.000606411,0.005175983,0.018633540372670808,0,0,8,24,24,1,0,1,0
HKG,3077,Hong Kong International Airport,Hong Kong,hong kong,VHHH,22.308901,113.915001,28,8,U,Asia/Hong_Kong,airport,OurAirports,5.5,5,6,5.5,5,5,5.5,5.5,5,4,5,4.5,5,5.5,5,5.5,6,5,5,7,6.5,5.5,6,6,5.5,6,5.5,5.5,6,7507400,0,1,1,1,1,0,0.064699793,0.027523979420830225,0.1295868362984856,0.044241688,0.001736397,0.017598343685300208,0.047101449,17,27,65,55,126,1,1,1,1
HKT,3179,Phuket International Airport,Phuket,thailand,VTSP,8.1132,98.316902,82,7,U,Asia/Bangkok,airport,OurAirports,5.13,1.5,5,6.5,7.5,5,5.5,5.5,5,4,5,4.5,5,5.5,5,5.5,4.67,5,4.5,6,5.5,4,5,4,4.5,4.5,4.5,5,3.5,416582,1,1,1,1,1,0,0.013975155279503106,0.000406729,0.10369078266317969,0.005680793,0.000310553,0.004140787,0.009834369,1,0,0,0,1,1,1,0,0
KIX,3992,Kansai International Airport,Osaka,japan,RJBB,34.42729949951172,135.24400329589844,26,9,U,Asia/Tokyo,airport,OurAirports,5,6.5,5.5,3,5,4.05,5,4.5,3,4,6,3,2,3,4.5,5.5,7.46,6,7.5,9,7.5,8,7.5,8.5,8,8,5.5,6,8,2871680,1,1,1,1,1,0,0.022256729,0.000787334,0.10271934152213971,0.005616693,0.00056768,0.00310559,0.019151138716356108,5,0,3,2,8,1,1,1,0
TPE,2276,Taiwan Taoyuan International Airport,Taipei,taiwan,RCTP,25.0777,121.233002,106,8,U,Asia/Taipei,airport,OurAirports,5.5,5,6,5.5,5,5,5.5,5.5,5,4,5,4.5,5,5.5,5,5.5,6,5,5,7,6.5,5.5,6,6,5.5,6,5.5,5.5,6,2646204,0,0,0,0,0,0,0.028985507246376815,0.000202065,0.10123483879440104,0.004688557,0.000304673,0.00310559,0.025879917184265012,0,1,0,2,2,1,0,0,1
KUL,3304,Kuala Lumpur International Airport,Kuala Lumpur,malaysia,WMKK,2.745579958,101.7099991,69,8,N,Asia/Kuala_Lumpur,airport,OurAirports,5.63,4.5,5.5,6,6.5,6.25,6.5,7,5.5,6,8,5.5,6.5,5,5,7.5,5.83,4.5,5.5,7,7,5,5.5,5.5,5.5,7,6,6,5.5,1790000,1,1,1,1,1,0,0.046583851,0.006515594,0.1120284244499569,0.01824211,0.000963708,0.008281573,0.038302277432712216,9,5,9,16,33,1,1,1,1
PEN,3308,Penang International Airport,Penang,malaysia,WMKP,5.297140121459961,100.2770004272461,11,8,N,Asia/Kuala_Lumpur,airport,OurAirports,5.63,4.5,5.5,6,6.5,6.25,6.5,7,5.5,6,8,5.5,6.5,5,5,7.5,5.83,4.5,5.5,7,7,5,5.5,5.5,5.5,7,6,6,5.5,1783000,1,1,1,1,1,0,0.00931677,0.00141485,0.10054863773399243,0.005972802,0.000914824,0.003623188,0.005693582,6,1,2,6,10,1,1,1,1
PER,3351,Perth International Airport,Perth,australia,YPPH,-31.94029999,115.96700286865234,67,8,N,Australia/Perth,airport,OurAirports,4.25,5,6,2,4,3.75,3.5,3,3.5,3,3.5,2,3.5,5,3.5,7,7.96,8,8.5,9,8,8,8,9,7,7,7.5,7.5,8,2125114,1,1,0,1,1,0,0.018633540372670808,0.001900686,0.10242728815469251,0.007136315,0.000377694,0.005175983,0.013457556935817806,3,0,0,5,5,1,1,0,0
PNH,3034,Phnom Penh International Airport,Phnom-penh,cambodia,VDPP,11.546600341796877,104.84400177001952,40,7,U,Asia/Phnom_Penh,airport,OurAirports,5.5,2.5,4,8.5,7,5,5.5,5.5,5,4,5,4.5,5,5.5,5,5.5,3.92,4.5,3.5,5,4.5,4,4.5,4.5,4,4,3,3,2.5,2281951,1,0,0,0,0,0,0.00931677,3.149525888342979e-05,0.09908683,0.004853824,0.0002973,0.002587992,0.006728778,11,0,1,2,13,1,1,1,0
RGN,3239,Yangon International Airport,Yangon,burma,VYYY,16.907300949099998,96.1332016,109,6.5,U,Asia/Rangoon,airport,OurAirports,5.5,5,6,5.5,5,5,5.5,5.5,5,4,5,4.5,5,5.5,5,5.5,6,5,5,7,6.5,5.5,6,6,5.5,6,5.5,5.5,6,4088000,0,0,0,0,0,0,0.008281573,0.000201126,0.090288573,0.002880782,0.000300527,0.002587992,0.005693582,4,0,0,0,4,1,1,0,0
SGN,3205,Tan Son Nhat International Airport,Ho Chi Minh City,vietnam,VVTS,10.81879997,106.6520004,33,7,U,Asia/Saigon,airport,OurAirports,6.5,6,7,7,6,5,5.5,5.5,5,4,5,4.5,5,5.5,5,5.5,4.67,5,4.5,5.5,5.5,4,4.5,5,5.5,5,5,4.5,2,8993082,1,1,1,1,1,0,0.019668737060041408,0.001568916,0.11040980010370095,0.016839644982013856,0.00056061,0.007246377,0.012422360248447206,3,0,15,12,20,1,1,1,0
SWA,4302,Jieyang Chaoshan International Airport,Shantou,china,ZGOW,23.552,116.5033,0,8,U,Asia/Shanghai,airport,OurAirports,6.13,7,7.5,7,3,5.9,6.5,6,2.5,8.5,9,4.5,6.5,3.5,4,8,5.46,6,4,6,7,5,5.5,7,6,7,4,6,2,5389328,1,1,1,1,1,0,0.007246377,3.11509265406924e-06,0.10301306512943341,0.010895369012488961,0.000435058,0.003623188,0.003623188,0,0,3,3,5,1,0,1,0
ACH,1679,St Gallen Altenrhein Airport,Altenrhein,switzerland,LSZR,47.48500061,9.560770034789998,1306,1,E,Europe/Zurich,airport,OurAirports,4.38,4.5,4,1.5,7.5,4.3,5,3,6.5,1.5,3,7,2.5,5.5,5.5,3.5,7.13,9,6.5,7.5,6.5,7,7.5,8.5,5,6,8,6,8,6570,1,1,1,1,1,0,0.000517598,0,0,8.998795916126649e-33,0.000246827,0,0.000517598,0,0,0,0,0,0,0,0,0
DRS,338,Dresden Airport,Dresden,germany,EDDC,51.13280106,13.767200469970703,755,1,E,Europe/Berlin,airport,OurAirports,5,5,6.5,2,6.5,4.8,5.5,7,6,1.5,3.5,2.5,4.5,6.5,5,6,7.67,7,7.5,8,8,7.5,7.5,9,6.5,7,8,8,8,529781,1,1,1,1,1,0,0.007246377,2.20000964790684e-06,0.085194589,0.003866005,0.000258409,0.001552795,0.005693582,0,0,0,0,0,0,0,0,0
DUS,345,Düsseldorf Airport,Duesseldorf,germany,EDDL,51.289501,6.76678,147,1,E,Europe/Berlin,airport,OurAirports,5,5,6.5,2,6.5,4.8,5.5,7,6,1.5,3.5,2.5,4.5,6.5,5,6,7.67,7,7.5,8,8,7.5,7.5,9,6.5,7,8,8,8,642304,1,1,1,1,1,0,0.073498965,0.002375782,0.1008703933747412,0.010798639498791304,0.000429319,0.007763975,0.06573499,1,1,1,4,5,1,1,1,1
FDH,382,Friedrichshafen Airport,Friedrichshafen,germany,EDNY,47.67129898,9.511489868,1367,1,E,Europe/Berlin,airport,OurAirports,5,5,6.5,2,6.5,4.8,5.5,7,6,1.5,3.5,2.5,4.5,6.5,5,6,7.67,7,7.5,8,8,7.5,7.5,9,6.5,7,8,8,8,58848,1,1,1,1,1,0,0.00310559,5.9565952435157396e-08,0.07892832,0.000540867,0.000249702,0.000517598,0.002587992,0,0,0,0,0,0,0,0,0
MUC,346,Munich Airport,Munich,germany,EDDM,48.353802,11.7861,1487,1,E,Europe/Berlin,airport,OurAirports,5,5,6.5,2,6.5,4.8,5.5,7,6,1.5,3.5,2.5,4.5,6.5,5,6,7.67,7,7.5,8,8,7.5,7.5,9,6.5,7,8,8,8,1539740,1,1,1,1,1,0,0.094202899,0.005065199,0.11313413343959308,0.018104238409297434,0.000402323,0.012422360248447206,0.081780538,1,3,1,8,9,1,1,1,1
HAM,342,Hamburg Airport,Hamburg,germany,EDDH,53.63040161,9.988229752,53,1,E,Europe/Berlin,airport,OurAirports,5,5,6.5,2,6.5,4.8,5.5,7,6,1.5,3.5,2.5,4.5,6.5,5,6,7.67,7,7.5,8,8,7.5,7.5,9,6.5,7,8,8,8,1802041,1,1,1,1,1,0,0.041925466,0.000233,0.098892543,0.012167911978550536,0.000312318,0.007246377,0.034679089,0,0,0,2,2,1,0,0,0
OLB,1520,Olbia Costa Smeralda Airport,Olbia,italy,LIEO,40.898701,9.51763,37,1,E,Europe/Rome,airport,OurAirports,6.38,9,3,6.5,7,5.25,7,6.5,5.5,2.5,3.5,5.5,4.5,7.5,5,5,6.29,6.5,5,8.5,8,5,7.5,6.5,5.5,5,5.5,5.5,7,60345,1,1,1,1,1,0,0.013975155279503106,3.5272424071364786e-05,0.098275909,0.006378306,0.000273334,0.003623188,0.010351966873706004,0,0,0,0,0,0,0,0,0
ZAD,1209,Zadar Airport,Zadar,croatia,LDZD,44.108299,15.3467,289,1,E,Europe/Zagreb,airport,OurAirports,5.38,4,6.5,6.5,4.5,4.75,4.5,6,3.5,5,2.5,4.5,5,5.5,5.5,5.5,5.58,5,5.5,6.5,6,5,6,6.5,6.5,4.5,5.5,5,5,75082,1,1,1,1,1,0,0.008799172,1.488718421660739e-06,0.086302527,0.00144767,0.000251868,0.001035197,0.007763975,0,0,0,0,0,0,0,0,0
FMM,3986,Memmingen Allgau Airport,Memmingen,germany,EDJA,47.98880005,10.23950005,2077,1,E,Europe/Berlin,airport,OurAirports,5,5,6.5,2,6.5,4.8,5.5,7,6,1.5,3.5,2.5,4.5,6.5,5,6,7.67,7,7.5,8,8,7.5,7.5,9,6.5,7,8,8,8,41030,1,1,1,1,1,0,0.007246377,3.3777908467806287e-06,0.084002659,0.001815086,0.000253227,0.000517598,0.006728778,0,0,0,0,0,0,0,0,0
NAP,1561,Naples International Airport,Naples,italy,LIRN,40.886002,14.2908,294,1,E,Europe/Rome,airport,OurAirports,6.38,9,3,6.5,7,5.25,7,6.5,5.5,2.5,3.5,5.5,4.5,7.5,5,5,6.29,6.5,5,8.5,8,5,7.5,6.5,5.5,5,5.5,5.5,7,967068,1,1,1,1,1,0,0.026397515527950312,8.17377507628498e-05,0.10188928623711231,0.009394972,0.000297216,0.005175983,0.021221532,1,0,1,4,4,1,1,1,0
GRZ,1609,Graz Airport,Graz,austria,LOWG,46.99110031,15.439599990844728,1115,1,E,Europe/Vienna,airport,OurAirports,4.13,2,4,4,6.5,3.95,4.5,5,6.5,2,2.5,2,4.5,3.5,4.5,4.5,7.42,7,6.5,7,8,8,8.5,8,6,7,8,8,7,294630,1,1,1,1,1,0,0.004140787,0,0.079027259,0.000616474,0.000251487,0.001035197,0.00310559,0,0,0,0,0,0,0,0,0
SZG,1612,Salzburg Airport,Salzburg,austria,LOWS,47.79330063,13.00430012,1411,1,E,Europe/Vienna,airport,OurAirports,4.13,2,4,4,6.5,3.95,4.5,5,6.5,2,2.5,2,4.5,3.5,4.5,4.5,7.42,7,6.5,7,8,8,8.5,8,6,7,8,8,7,157245,1,1,1,1,1,0,0.008281573,3.273365574737864e-06,0.089998567,0.005780924,0.000271252,0.00310559,0.005175983,0,0,0,0,0,0,0,0,0
ATL,3682,Hartsfield Jackson Atlanta International Airport,Atlanta,united states,KATL,33.6367,-84.428101,1026,-5,A,America/New_York,airport,OurAirports,5.5,5,6.5,5,5.5,5.5,5.5,4.5,6.5,2.5,5.5,4.5,6.5,7,5,7.5,6.58,4.5,5.5,7,6.5,6,8,6.5,6.5,8,7,6,7.5,506811,1,1,1,0,0,0,0.095755694,0.010419086355255014,0.11257856403430937,0.015605512152221564,0.000422663,0.00931677,0.086438923,0,0,2,1,2,1,0,1,0
MCN,3754,Middle Georgia Regional Airport,Macon,united states,KMCN,32.69279861450195,-83.64920044,354,-5,A,America/New_York,airport,OurAirports,5.5,5,6.5,5,5.5,5.5,5.5,4.5,6.5,2.5,5.5,4.5,6.5,7,5,7.5,6.58,4.5,5.5,7,6.5,6,8,6.5,6.5,8,7,6,7.5,153159,1,1,1,0,0,0,0.000517598,0,0.08604936,0.00078177,0.000248979,0.000517598,0,0,0,0,0,0,0,0,0,0
FLL,3533,Fort Lauderdale Hollywood International Airport,Fort Lauderdale,united states,KFLL,26.072599,-80.152702,9,-5,A,America/New_York,airport,OurAirports,5.5,5,6.5,5,5.5,5.5,5.5,4.5,6.5,2.5,5.5,4.5,6.5,7,5,7.5,6.58,4.5,5.5,7,6.5,6,8,6.5,6.5,8,7,6,7.5,182595,1,1,1,0,0,0,0.048654244,0.002123245,0.10649323624867102,0.010783291732069369,0.000312385,0.005175983,0.043478261,0,0,0,0,0,0,0,0,0
ELH,1943,North Eleuthera Airport,North Eleuthera,bahamas,MYEH,25.47489929,-76.6835022,13,-5,U,America/Nassau,airport,OurAirports,3.63,3.5,2,3,6,3.95,4.5,5,4.5,1,4.5,2,4,7,4,3,5.21,6,6,6,6,3.5,6,5,4.5,4,6.5,5,4,3247,1,0,0,0,0,0,0.000517598,0,0.082458125,0.000540204,0.00024999,0.000517598,0,0,0,0,0,0,0,0,0,0
PBI,3722,Palm Beach International Airport,West Palm Beach,united states,KPBI,26.68320083618164,-80.09559631,19,-5,A,America/New_York,airport,OurAirports,5.5,5,6.5,5,5.5,5.5,5.5,4.5,6.5,2.5,5.5,4.5,6.5,7,5,7.5,6.58,4.5,5.5,7,6.5,6,8,6.5,6.5,8,7,6,7.5,111398,1,1,1,0,0,0,0.011904761904761906,2.6365275259221994e-05,0.092779979,0.002805235,0.000255316,0.001552795,0.010351966873706004,0,0,0,0,0,0,0,0,0
EYW,3875,Key West International Airport,Key West,united states,KEYW,24.556100845336918,-81.75959778,3,-5,A,America/New_York,airport,OurAirports,5.5,5,6.5,5,5.5,5.5,5.5,4.5,6.5,2.5,5.5,4.5,6.5,7,5,7.5,6.58,4.5,5.5,7,6.5,6,8,6.5,6.5,8,7,6,7.5,26990,1,1,1,0,0,0,0.003623188,5.31013035189198e-07,0.086628644,0.001321974,0.000252143,0.001035197,0.002587992,0,0,0,0,0,0,0,0,0
RSW,3793,Southwest Florida International Airport,Fort Myers,united states,KRSW,26.53619956970215,-81.75520325,30,-5,A,America/New_York,airport,OurAirports,5.5,5,6.5,5,5.5,5.5,5.5,4.5,6.5,2.5,5.5,4.5,6.5,7,5,7.5,6.58,4.5,5.5,7,6.5,6,8,6.5,6.5,8,7,6,7.5,82254,1,1,1,0,0,0,0.017080745341614908,5.8969190696431184e-05,0.10054863773399243,0.007769759,0.000317568,0.00310559,0.013975155279503106,0,0,0,0,0,0,0,0,0
TPA,3646,Tampa International Airport,Tampa,united states,KTPA,27.975500106811523,-82.53320313,26,-5,A,America/New_York,airport,OurAirports,5.5,5,6.5,5,5.5,5.5,5.5,4.5,6.5,2.5,5.5,4.5,6.5,7,5,7.5,6.58,4.5,5.5,7,6.5,6,8,6.5,6.5,8,7,6,7.5,392890,1,1,1,0,0,0,0.033643892,0.000311628,0.10644828342627818,0.010489759706735767,0.000294672,0.004658385,0.028985507246376815,0,0,0,0,0,0,0,0,0
FPO,1948,Grand Bahama International Airport,Freeport,bahamas,MYGF,26.55870056,-78.69560242,7,-5,U,America/Nassau,airport,OurAirports,3.63,3.5,2,3,6,3.95,4.5,5,4.5,1,4.5,2,4,7,4,3,5.21,6,6,6,6,3.5,6,5,4.5,4,6.5,5,4,26914,1,0,0,0,0,0,0.002070393,3.9698964221009385e-07,0.082329737,0.000540204,0.00024999,0.000517598,0.001552795,0,0,0,0,0,0,0,0,0
GGT,1941,Exuma International Airport,Great Exuma,bahamas,MYEF,23.56259918,-75.87799835,9,-5,U,America/Nassau,airport,OurAirports,3.63,3.5,2,3,6,3.95,4.5,5,4.5,1,4.5,2,4,7,4,3,5.21,6,6,6,6,3.5,6,5,4.5,4,6.5,5,4,7314,1,0,0,0,0,0,0.001552795,3.9698964221009385e-07,0.082329737,0.000540204,0.00024999,0.000517598,0.001035197,0,0,0,0,0,0,0,0,0
GHB,1944,Governor's Harbour Airport,Governor's Harbor,bahamas,MYEM,25.28470039,-76.33100128,26,-5,U,America/Nassau,airport,OurAirports,3.63,3.5,2,3,6,3.95,4.5,5,4.5,1,4.5,2,4,7,4,3,5.21,6,6,6,6,3.5,6,5,4.5,4,6.5,5,4,701,1,0,0,0,0,0,0.000517598,0,0.082458125,0.000540204,0.00024999,0.000517598,0,0,0,0,0,0,0,0,0,0
MCO,3878,Orlando International Airport,Orlando,united states,KMCO,28.429399490356445,-81.30899811,96,-5,A,America/New_York,airport,OurAirports,5.5,5,6.5,5,5.5,5.5,5.5,4.5,6.5,2.5,5.5,4.5,6.5,7,5,7.5,6.58,4.5,5.5,7,6.5,6,8,6.5,6.5,8,7,6,7.5,285713,1,1,1,0,0,0,0.049689441,0.001664061,0.10767548396108155,0.011371876,0.000360998,0.00621118,0.043478261,0,0,0,0,0,0,0,0,0
MHH,1930,Leonard M Thompson International Airport,Marsh Harbor,bahamas,MYAM,26.5114,-77.083503,6,-5,U,America/Nassau,airport,OurAirports,3.63,3.5,2,3,6,3.95,4.5,5,4.5,1,4.5,2,4,7,4,3,5.21,6,6,6,6,3.5,6,5,4.5,4,6.5,5,4,6283,1,0,0,0,0,0,0.002587992,4.130939141190608e-06,0.083640459,0.001250439,0.000264503,0.001552795,0.001035197,0,0,0,0,0,0,0,0,0
GNV,3472,Gainesville Regional Airport,Gainesville,united states,KGNV,29.69009972,-82.27179718,152,-5,A,America/New_York,airport,OurAirports,5.5,5,6.5,5,5.5,5.5,5.5,4.5,6.5,2.5,5.5,4.5,6.5,7,5,7.5,6.58,4.5,5.5,7,6.5,6,8,6.5,6.5,8,7,6,7.5,133857,1,1,1,0,0,0,0.002587992,0,0.086927261,0.001876976,0.000257111,0.001552795,0.001035197,0,0,0,0,0,0,0,0,0
JAX,3712,Jacksonville International Airport,Jacksonville,united states,KJAX,30.49410057067871,-81.68789673,30,-5,A,America/New_York,airport,OurAirports,5.5,5,6.5,5,5.5,5.5,5.5,4.5,6.5,2.5,5.5,4.5,6.5,7,5,7.5,6.58,4.5,5.5,7,6.5,6,8,6.5,6.5,8,7,6,7.5,903889,1,1,1,0,0,0,0.013457556935817806,1.4440591233335114e-05,0.098429346,0.007853054,0.000274584,0.002587992,0.010869565217391306,0,0,0,0,0,0,0,0,0
PNS,3564,Pensacola Regional Airport,Pensacola,united states,KPNS,30.47340012,-87.18659973,121,-6,A,America/Chicago,airport,OurAirports,5.5,5,6.5,5,5.5,5.5,5.5,4.5,6.5,2.5,5.5,4.5,6.5,7,5,7.5,6.58,4.5,5.5,7,6.5,6,8,6.5,6.5,8,7,6,7.5,52713,1,1,1,0,0,0,0.005693582,3.9581482029600285e-08,0.088420752,0.002414348,0.000259812,0.002070393,0.003623188,0,0,0,0,0,0,0,0,0
TLH,3698,Tallahassee Regional Airport,Tallahassee,united states,KTLH,30.396499633789062,-84.35030365,81,-5,A,America/New_York,airport,OurAirports,5.5,5,6.5,5,5.5,5.5,5.5,4.5,6.5,2.5,5.5,4.5,6.5,7,5,7.5,6.58,4.5,5.5,7,6.5,6,8,6.5,6.5,8,7,6,7.5,193551,1,1,1,0,0,0,0.003623188,4.731161588923397e-06,0.083281368,0.001095206,0.000254958,0.001035197,0.002587992,1,0,0,0,1,1,1,0,0
AMS,580,Amsterdam Airport Schiphol,Amsterdam,netherlands,EHAM,52.308601,4.76389,-11,1,E,Europe/Amsterdam,airport,OurAirports,4.38,4.5,6,2.5,4.5,5,5.5,4.5,5,3,4,4,4,7,5.5,7.5,7.42,7.5,8,8,7.5,7.5,7.5,6,6.5,6.5,8,8,8,820654,1,1,1,1,1,0,0.11801242236024846,0.014966788704860864,0.11680221557983002,0.022931948526597454,0.000784301,0.019668737060041408,0.098343685,2,4,1,9,10,1,1,1,1
NDR,5673,Nador International Airport,El Aroui,morocco,GMMW,34.988800048799995,-3.028209925,574,0,N,Africa/Casablanca,airport,OurAirports,4.63,1,6.5,7,4,4.95,5.5,6.5,3,3,4.5,3,3,6,9,6,4.63,4.5,3.5,6,6,4,5.5,6,3.5,4.5,4.5,4,3.5,47578,1,0,1,1,1,0,0.00621118,3.771066544345067e-06,0.093398512,0.003123946,0.000253736,0.001035197,0.005175983,0,0,0,0,0,0,0,0,0
TNG,1080,Ibn Batouta Airport,Tanger,morocco,GMTT,35.726898193400004,-5.916890144,62,0,N,Africa/Casablanca,airport,OurAirports,4.63,1,6.5,7,4,4.95,5.5,6.5,3,3,4.5,3,3,6,9,6,4.63,4.5,3.5,6,6,4,5.5,6,3.5,4.5,4.5,4,3.5,947952,1,0,1,1,1,0,0.00621118,1.1652338683256068e-06,0.095376696,0.004208602,0.000257164,0.001552795,0.004658385,0,0,0,0,0,0,0,0,0
CMN,1074,Mohammed V International Airport,Casablanca,morocco,GMMN,33.36750030517578,-7.589970112,656,0,N,Africa/Casablanca,airport,OurAirports,4.63,1,6.5,7,4,4.95,5.5,6.5,3,3,4.5,3,3,6,9,6,4.63,4.5,3.5,6,6,4,5.5,6,3.5,4.5,4.5,4,3.5,3359818,1,0,1,1,1,0,0.042443064,0.003058487,0.10560133309750963,0.010243069340699918,0.001015333,0.013457556935817806,0.028985507246376815,4,2,0,4,7,1,1,0,1
BGY,1525,Il Caravaggio International Airport,Bergamo,italy,LIME,45.673901,9.70417,782,1,E,Europe/Rome,airport,OurAirports,6.38,9,3,6.5,7,5.25,7,6.5,5.5,2.5,3.5,5.5,4.5,7.5,5,5,6.29,6.5,5,8.5,8,5,7.5,6.5,5.5,5,5.5,5.5,7,122243,1,1,1,1,1,0,0.038819876,0.000273908,0.090482951,0.007197591,0.000295246,0.00310559,0.035714286,0,0,0,0,0,0,0,0,0
BLQ,1538,Bologna Guglielmo Marconi Airport,Bologna,italy,LIPE,44.5354,11.2887,123,1,E,Europe/Rome,airport,OurAirports,6.38,9,3,6.5,7,5.25,7,6.5,5.5,2.5,3.5,5.5,4.5,7.5,5,5,6.29,6.5,5,8.5,8,5,7.5,6.5,5.5,5,5.5,5.5,7,394843,1,1,1,1,1,0,0.032608696,0.000246749,0.098621816,0.009453472,0.000342614,0.00621118,0.026397515527950312,0,0,1,2,2,1,0,1,0
BRU,302,Brussels Airport,Brussels,belgium,EBBR,50.90140152,4.48443985,184,1,E,Europe/Brussels,airport,OurAirports,3.63,3,4.5,2,5,5.05,5,5.5,5.5,2.5,3.5,3,4,7.5,6.5,7.5,7,7,7,8,7,6,7,6,7,7,7.5,6.5,8,1208542,1,1,1,1,1,0,0.072463768,0.002785586,0.10926169126380113,0.018440294628247467,0.000584858,0.014492753623188408,0.057971014,0,2,0,2,3,1,0,0,1
CGN,344,Cologne Bonn Airport,Cologne,germany,EDDK,50.86589813,7.142739773,302,1,E,Europe/Berlin,airport,OurAirports,5,5,6.5,2,6.5,4.8,5.5,7,6,1.5,3.5,2.5,4.5,6.5,5,6,7.67,7,7.5,8,8,7.5,7.5,9,6.5,7,8,8,8,1017155,1,1,1,1,1,0,0.042960663,0.000465397,0.099792633,0.013930525753374678,0.000439161,0.009834369,0.033126293995859216,0,0,0,0,0,0,0,0,0
CUF,1534,Cuneo International Airport,Cuneo,italy,LIMZ,44.547001,7.62322,1267,1,E,Europe/Rome,airport,OurAirports,6.38,9,3,6.5,7,5.25,7,6.5,5.5,2.5,3.5,5.5,4.5,7.5,5,5,6.29,6.5,5,8.5,8,5,7.5,6.5,5.5,5,5.5,5.5,7,56281,1,1,1,1,1,0,0.001035197,6.030585051664493e-07,0.081822188,0.000513045,0.000262245,0.000517598,0.000517598,0,0,0,0,0,0,0,0,0
LYS,1335,Lyon Saint-Exupéry Airport,Lyon,france,LFLL,45.725556,5.081111,821,1,E,Europe/Paris,airport,OurAirports,5.63,6,6.5,3,7,5.7,6,6.5,6,4,5.5,4.5,6,6.5,6.5,5.5,6.83,6,7,8.5,7.5,6.5,7,5,8,8,5,6.5,7,720890,1,1,1,1,1,0,0.035196687370600416,0.002230454,0.1073089291220651,0.014643524100821733,0.000412535,0.006728778,0.028467908902691512,0,0,0,0,0,0,0,0,0
MPL,1359,Montpellier-Méditerranée Airport,Montpellier,france,LFMT,43.57619857788086,3.963010073,17,1,E,Europe/Paris,airport,OurAirports,5.63,6,6.5,3,7,5.7,6,6.5,6,4,5.5,4.5,6,6.5,6.5,5.5,6.83,6,7,8.5,7.5,6.5,7,5,8,8,5,6.5,7,255080,1,1,1,1,1,0,0.009834369,0.000636,0.099950846,0.007874038,0.000398191,0.002587992,0.007246377,0,0,0,0,0,0,0,0,0
SAW,4317,Sabiha Gökçen International Airport,Istanbul,turkey,LTFJ,40.89860153,29.30920029,312,3,E,Europe/Istanbul,airport,OurAirports,7.38,8,7.5,9,5,6.4,7,9,9,4,3,9.5,8,4,5,5.5,3.54,3,3,3.5,4.5,2,3,6.5,2,4,4,3.5,3.5,15462452,1,1,1,1,1,1,0.054347826,0.002941624,0.10446395337069303,0.014412396,0.000833465,0.012939958592132506,0.041407867494824016,4,10,3,7,19,1,1,1,1
TLS,1273,Toulouse-Blagnac Airport,Toulouse,france,LFBO,43.629101,1.36382,499,1,E,Europe/Paris,airport,OurAirports,5.63,6,6.5,3,7,5.7,6,6.5,6,4,5.5,4.5,6,6.5,6.5,5.5,6.83,6,7,8.5,7.5,6.5,7,5,8,8,5,6.5,7,440204,1,1,1,1,1,0,0.023809524,0.001966399,0.10582290534488166,0.015303721488937959,0.000410024,0.00621118,0.017598343685300208,1,0,0,2,3,1,1,0,0
TSF,1539,Treviso-Sant'Angelo Airport,Treviso,italy,LIPH,45.648399,12.1944,59,1,E,Europe/Rome,airport,OurAirports,6.38,9,3,6.5,7,5.25,7,6.5,5.5,2.5,3.5,5.5,4.5,7.5,5,5,6.29,6.5,5,8.5,8,5,7.5,6.5,5.5,5,5.5,5.5,7,85760,1,1,1,1,1,0,0.019151138716356108,3.125835875474002e-05,0.093088218,0.004650861,0.000287316,0.002587992,0.016563146997929608,0,0,0,0,0,0,0,0,0
FEZ,1066,Saïss Airport,Fes,morocco,GMFF,33.9272995,-4.97796011,1900,0,N,Africa/Casablanca,airport,OurAirports,4.63,1,6.5,7,4,4.95,5.5,6.5,3,3,4.5,3,3,6,9,6,4.63,4.5,3.5,6,6,4,5.5,6,3.5,4.5,4.5,4,3.5,1150131,1,0,1,1,1,0,0.007246377,1.0185595654087857e-05,0.09136811,0.003243237,0.00029345,0.002070393,0.005175983,0,0,0,0,0,0,0,0,0
PMI,3998,Palma De Mallorca Airport,Palma de Mallorca,spain,LEPA,39.55170059,2.738810062,27,1,E,Europe/Madrid,airport,OurAirports,6.25,6,6.5,5,7.5,5.3,7,7,4,3.5,5,2,6.5,7,7,4,6.63,6,6,8,8,7,8,5.5,6.5,6,6.5,5,7,407648,1,1,1,1,1,0,0.064699793,0.002103776,0.11212804954951223,0.045762911605499154,0.000751357,0.018115942028985508,0.046583851,0,0,0,0,0,0,0,0,0
AUA,2895,Queen Beatrix International Airport,Oranjestad,aruba,TNCA,12.5014,-70.015198,60,-4,U,America/Aruba,airport,OurAirports,5.5,5,6,5.5,5,5,5.5,5.5,5,4,5,4.5,5,5.5,5,5.5,6,5,5,7,6.5,5.5,6,6,5.5,6,5.5,5.5,6,34980,0,0,0,0,0,0,0.009834369,4.4155664288712227e-05,0.093955284,0.002478047,0.000267879,0.002070393,0.007763975,0,0,0,0,0,0,0,0,0
MAR,2848,La Chinita International Airport,Maracaibo,venezuela,SVMC,10.55820847,-71.7278595,239,-4,U,America/Caracas,airport,OurAirports,7.63,9.5,5,9,7,5.65,7.5,7.5,8,2.5,2.5,9,2,9,7,1.5,1.92,2,1.5,1.5,2,1.5,1.5,3.5,1.5,1,1,2,4,1339019,1,1,0,0,0,0,0.001552795,7.469930651237407e-05,0.085891003,0.001338429,0.000306294,0.000517598,0.001035197,0,0,0,0,0,0,0,0,0
BON,2896,Flamingo International Airport,Kralendijk,netherlands antilles,TNCB,12.130999565124512,-68.26850128,20,-4,U,America/Curacao,airport,OurAirports,4.38,4.5,6,2.5,4.5,5,5.5,4.5,5,3,4,4,4,7,5.5,7.5,7.42,7.5,8,8,7.5,7.5,7.5,6,6.5,6.5,8,8,8,10620,0,0,0,0,0,0,0.002587992,2.756372154588868e-07,0.088669474,0.001272768,0.00026553,0.001035197,0.001552795,0,0,0,0,0,0,0,0,0
CUR,2897,Hato International Airport,Willemstad,netherlands antilles,TNCC,12.1889,-68.959801,29,-4,U,America/Curacao,airport,OurAirports,4.38,4.5,6,2.5,4.5,5,5.5,4.5,5,3,4,4,4,7,5.5,7.5,7.42,7.5,8,8,7.5,7.5,7.5,6,6.5,6.5,8,8,8,150000,0,0,0,0,0,0,0.007246377,0.000262563,0.090288573,0.001884826,0.000355904,0.002587992,0.004658385,0,0,0,0,0,0,0,0,0
BHK,2980,Bukhara Airport,Bukhara,uzbekistan,UTSB,39.775001525878906,64.48329926,751,5,U,Asia/Samarkand,airport,OurAirports,5.38,5,4.5,7,5,4.55,7.5,6,3,3,3.5,6.5,6.5,1.5,4,4,3.79,3,3,4,4,3,3.5,4.5,3.5,4.5,4,5,3.5,279200,1,1,1,1,1,1,0.001552795,0,0.086987231,0.001215524,0.000256073,0.001035197,0.000517598,0,0,0,0,0,0,0,0,0
FEG,6149,Fergana International Airport,Fergana,uzbekistan,UTKF,40.35879898,71.74500275,1980,5,U,Asia/Samarkand,airport,OurAirports,5.38,5,4.5,7,5,4.55,7.5,6,3,3,3.5,6.5,6.5,1.5,4,4,3.79,3,3,4,4,3,3.5,4.5,3.5,4.5,4,5,3.5,264900,1,1,1,1,1,1,0.002587992,5.3609357191641666e-08,0.087017248,0.001339924,0.000276115,0.002070393,0.000517598,0,0,0,0,0,0,0,0,0
KSQ,6153,Karshi Khanabad Airport,Khanabad,uzbekistan,UTSL,38.83359909,65.92150116,1365,5,U,Asia/Samarkand,airport,OurAirports,5.38,5,4.5,7,5,4.55,7.5,6,3,3,3.5,6.5,6.5,1.5,4,4,3.79,3,3,4,4,3,3.5,4.5,3.5,4.5,4,5,3.5,42301,1,1,1,1,1,1,0.001035197,0,0.087056478,0.001215524,0.000256073,0.001035197,0,0,0,0,0,0,0,0,0,0
NMA,6150,Namangan Airport,Namangan,uzbekistan,UTKN,40.98460007,71.55670166,1555,5,U,Asia/Samarkand,airport,OurAirports,5.38,5,4.5,7,5,4.55,7.5,6,3,3,3.5,6.5,6.5,1.5,4,4,3.79,3,3,4,4,3,3.5,4.5,3.5,4.5,4,5,3.5,484921,1,1,1,1,1,1,0.002587992,4.467446432636805e-08,0.087017248,0.001340066,0.00028595,0.002070393,0.000517598,0,0,0,0,0,0,0,0,0
SKD,2981,Samarkand Airport,Samarkand,uzbekistan,UTSS,39.70050048828125,66.98380279541016,2224,5,U,Asia/Samarkand,airport,OurAirports,5.38,5,4.5,7,5,4.55,7.5,6,3,3,3.5,6.5,6.5,1.5,4,4,3.79,3,3,4,4,3,3.5,4.5,3.5,4.5,4,5,3.5,513572,1,1,1,1,1,1,0.002070393,0,0.087017248,0.001274916,0.00026865,0.001552795,0.000517598,0,0,0,0,0,0,0,0,0
TIV,1743,Tivat Airport,Tivat,montenegro,LYTV,42.40470123291016,18.72330093383789,20,1,E,Europe/Podgorica,airport,OurAirports,7,7.5,7,7.5,6,5,4.5,5.5,6,3,4.5,3.5,5.5,7.5,5.5,4.5,4.46,3.5,4,5.5,5,4.5,3.5,5,5,4,4,5,4.5,14000,1,0,0,0,0,0,0.002070393,1.3191830388452939e-06,0.090030697,0.00230018,0.000259501,0.001552795,0.000517598,0,0,0,0,0,0,0,0,0
ANU,2874,V.C. Bird International Airport,Antigua,antigua and barbuda,TAPA,17.1367,-61.792702,62,-4,U,America/Antigua,airport,OurAirports,3.63,3,3,3,5.5,3.05,4,2,3,1,3.5,1.5,3,6,5,1.5,4.33,4.5,5,5,5,3,4,4,2.5,5,4,4.5,5.5,95882,1,0,0,0,0,0,0.005175983,0.000253569,0.081795648,0.001084655,0.000250254,0.000517598,0.004658385,0,0,0,0,0,0,0,0,0
PTP,2881,Pointe-à-Pitre Le Raizet,Pointe-a-pitre,guadeloupe,TFFR,16.265301,-61.531799,36,-4,U,America/Guadeloupe,airport,OurAirports,5.5,5,6,5.5,5,5,5.5,5.5,5,4,5,4.5,5,5.5,5,5.5,6,5,5,7,6.5,5.5,6,6,5.5,6,5.5,5.5,6,15410,0,1,1,0,0,0,0.005175983,0.000223088,0.085022247,0.000599311,0.000251541,0.000517598,0.004658385,1,0,0,0,1,1,1,0,0
CAY,2774,Cayenne-Rochambeau Airport,Cayenne,french guiana,SOCA,4.819809913639999,-52.36040115,26,-3,U,America/Cayenne,airport,OurAirports,5.5,5,6,5.5,5,5,5.5,5.5,5,4,5,4.5,5,5.5,5,5.5,6,5,5,7,6.5,5.5,6,6,5.5,6,5.5,5.5,6,58004,0,1,1,0,0,0,0.001035197,0,0,8.998795916126649e-33,0.000246827,0,0.001035197,0,0,0,0,0,0,0,0,0
FDF,2878,Martinique Aimé Césaire International Airport,Fort-de-france,martinique,TFFF,14.590999603271484,-61.00320053,16,-4,U,America/Martinique,airport,OurAirports,5.5,5,6,5.5,5,5,5.5,5.5,5,4,5,4.5,5,5.5,5,5.5,6,5,5,7,6.5,5.5,6,6,5.5,6,5.5,5.5,6,90347,0,1,0,0,0,0,0.004658385,0.000501001,0.085194589,0.000629332,0.000380277,0.001552795,0.00310559,0,0,0,0,0,0,0,0,0
SDQ,1762,Las Américas International Airport,Santo Domingo,dominican republic,MDSD,18.42970085,-69.66889954,59,-4,U,America/Santo_Domingo,airport,OurAirports,5,5,5.5,5.5,4,5.3,6,6,4,4.5,4,4.5,6.5,8,5,4.5,4.67,5,3,7,5,4,4.5,5.5,4,5,4,4,5,2907100,1,0,0,0,0,0,0.013975155279503106,0.000284076,0.089838256,0.002178788,0.000434505,0.005693582,0.008281573,0,0,0,0,0,0,0,0,0
DOM,2877,Douglas-Charles Airport,Dominica,dominica,TDPD,15.547,-61.299999,73,-4,U,America/Dominica,airport,OurAirports,2.5,1,5,1.5,2.5,2.75,2.5,2.5,5,1,1,1,1,6,5,2.5,5.08,3.5,4,6,5,5,5.5,6,5,5,5,6,5,71808,1,0,0,0,0,0,0.001035197,2.6835488571218327e-07,0.066801585,5.432577875025098e-05,0.000270476,0.000517598,0.000517598,0,0,0,0,0,0,0,0,0
SXM,2899,Princess Juliana International Airport,Philipsburg,netherlands antilles,TNCM,18.04100037,-63.10889816,13,-4,U,America/Curacao,airport,OurAirports,4.38,4.5,6,2.5,4.5,5,5.5,4.5,5,3,4,4,4,7,5.5,7.5,7.42,7.5,8,8,7.5,7.5,7.5,6,6.5,6.5,8,8,8,1894,0,0,0,0,0,0,0.012422360248447206,0.000628747,0.095340636,0.003241559,0.000338855,0.003623188,0.008799172,0,0,0,0,0,0,0,0,0
SLU,2893,George F. L. Charles Airport,Castries,saint lucia,TLPC,14.0202,-60.992901,22,-4,U,America/St_Lucia,airport,OurAirports,5.13,5,4,5.5,6,3.05,4,1.5,5,2,1,1,1,7,7,1,5.63,7.5,6.5,6.5,6.5,6,4.5,5.5,4,5.5,5,6,4,20000,1,0,0,0,0,0,0.001035197,0,0.069116991,3.152452717395646e-05,0.000300723,0.000517598,0.000517598,0,0,0,0,0,0,0,0,0
SBH,6460,Gustaf III Airport,Gustavia,france,TFFJ,17.904399871826172,-62.84360123,49,-4,E,,airport,OurAirports,5.63,6,6.5,3,7,5.7,6,6.5,6,4,5.5,4.5,6,6.5,6.5,5.5,6.83,6,7,8.5,7.5,6.5,7,5,8,8,5,6.5,7,9131,1,1,1,1,1,0,0.002587992,4.966895868700678e-07,0.07807306,0.00024673,0.000311197,0.001552795,0.001035197,0,0,0,0,0,0,0,0,0
SFG,2879,L'Espérance Airport,St. Martin,guadeloupe,TFFG,18.09989929,-63.04719925,7,-4,U,,airport,OurAirports,5.5,5,6,5.5,5,5,5.5,5.5,5,4,5,4.5,5,5.5,5,5.5,6,5,5,7,6.5,5.5,6,6,5.5,6,5.5,5.5,6,33102,0,1,1,0,0,0,0.000517598,0,0.069003839,3.0020707181738266e-05,0.000270598,0.000517598,0,0,0,0,0,0,0,0,0,0
BHY,6351,Beihai Airport,Beihai,china,ZGBH,21.5394,109.293999,0,8,U,Asia/Shanghai,airport,OurAirports,6.13,7,7.5,7,3,5.9,6.5,6,2.5,8.5,9,4.5,6.5,3.5,4,8,5.46,6,4,6,7,5,5.5,7,6,7,4,6,2,1539300,1,1,1,1,1,0,0.004140787,7.053862788373902e-08,0.094447934,0.005739626,0.00030415,0.002070393,0.002070393,0,0,0,0,0,0,0,0,0
XIY,3379,Xi'an Xianyang International Airport,Xi'an,china,ZLXY,34.447102,108.751999,1572,8,U,Asia/Shanghai,airport,OurAirports,6.13,7,7.5,7,3,5.9,6.5,6,2.5,8.5,9,4.5,6.5,3.5,4,8,5.46,6,4,6,7,5,5.5,7,6,7,4,6,2,8467838,1,1,1,1,1,0,0.027950310559006212,0.000554017,0.099556251,0.014766785976516691,0.000640288,0.005175983,0.022774327,0,0,1,2,2,1,0,1,0
CAN,3370,Guangzhou Baiyun International Airport,Guangzhou,china,ZGGG,23.39240074157715,113.29900360107422,50,8,U,Asia/Shanghai,airport,OurAirports,6.13,7,7.5,7,3,5.9,6.5,6,2.5,8.5,9,4.5,6.5,3.5,4,8,5.46,6,4,6,7,5,5.5,7,6,7,4,6,2,18676605,1,1,1,1,1,0,0.060041408,0.011428328065167394,0.12112199012336838,0.043451202,0.001368137,0.019151138716356108,0.040890269,2,8,62,137,145,1,1,1,1
CKG,3393,Chongqing Jiangbei International Airport,Chongqing,china,ZUCK,29.719200134277344,106.64199829101562,1365,8,U,Asia/Shanghai,airport,OurAirports,6.13,7,7.5,7,3,5.9,6.5,6,2.5,8.5,9,4.5,6.5,3.5,4,8,5.46,6,4,6,7,5,5.5,7,6,7,4,6,2,32054159,1,1,1,1,1,0,0.026915113871635612,0.000469576,0.10662832280628033,0.019881915106475793,0.000701199,0.008799172,0.018115942028985508,2,0,4,9,9,1,1,1,0
CTU,3395,Chengdu Shuangliu International Airport,Chengdu,china,ZUUU,30.578500747680664,103.9469985961914,1625,8,U,Asia/Shanghai,airport,OurAirports,6.13,7,7.5,7,3,5.9,6.5,6,2.5,8.5,9,4.5,6.5,3.5,4,8,5.46,6,4,6,7,5,5.5,7,6,7,4,6,2,16330000,1,1,1,1,1,0,0.037784679,0.003211424,0.11867105102910729,0.036586409,0.001005336,0.012422360248447206,0.025362318840579712,0,3,26,47,49,1,0,1,1
SPN,2244,Saipan International Airport,Saipan,northern mariana islands,PGSN,15.119,145.729004,215,10,U,Pacific/Saipan,airport,OurAirports,4.75,1,4.5,7,6.5,3.55,4,2,3,8,7.5,2.5,1,2.5,3.5,1.5,5.21,5,4.5,5.5,4.5,5.5,6,5,5,5,4.5,6.5,5.5,47565,0,0,0,0,0,0,0.001552795,0.000524695,0.079954338,0.000457367,0.000364623,0.000517598,0.001035197,0,0,0,0,0,0,0,0,0
CGO,3375,Zhengzhou Xinzheng International Airport,Zhengzhou,china,ZHCC,34.519699096699995,113.8410034,495,8,U,Asia/Shanghai,airport,OurAirports,6.13,7,7.5,7,3,5.9,6.5,6,2.5,8.5,9,4.5,6.5,3.5,4,8,5.46,6,4,6,7,5,5.5,7,6,7,4,6,2,10352000,1,1,1,1,1,0,0.020186335403726708,0.000156273,0.10221969332665302,0.020438299101718224,0.000773379,0.008281573,0.011904761904761906,1,0,8,13,13,1,1,1,0
CGQ,4380,Longjia Airport,Changchun,china,ZYCC,43.99620056,125.6849976,706,8,U,Asia/Shanghai,airport,OurAirports,6.13,7,7.5,7,3,5.9,6.5,6,2.5,8.5,9,4.5,6.5,3.5,4,8,5.46,6,4,6,7,5,5.5,7,6,7,4,6,2,7674439,1,1,1,1,1,0,0.00931677,8.795080925355865e-06,0.098931339,0.012487343770047203,0.000442194,0.003623188,0.005693582,0,0,1,1,1,1,0,1,0
HRB,3400,Taiping Airport,Harbin,china,ZYHB,45.62340164,126.25,457,8,U,Asia/Shanghai,airport,OurAirports,6.13,7,7.5,7,3,5.9,6.5,6,2.5,8.5,9,4.5,6.5,3.5,4,8,5.46,6,4,6,7,5,5.5,7,6,7,4,6,2,10635971,1,1,1,1,1,0,0.013457556935817806,0.000514092,0.098699015,0.011147321,0.000587945,0.004140787,0.00931677,0,0,1,0,1,1,0,1,0
KMG,3382,Kunming Changshui International Airport,Kunming,china,ZPPP,25.1019444,102.9291667,6903,8,N,Asia/Shanghai,airport,OurAirports,6.13,7,7.5,7,3,5.9,6.5,6,2.5,8.5,9,4.5,6.5,3.5,4,8,5.46,6,4,6,7,5,5.5,7,6,7,4,6,2,6626000,1,1,1,1,1,0,0.026397515527950312,0.002968814,0.1072176800326756,0.024620101,0.001739882,0.011387163561076606,0.015010351966873708,0,2,20,41,41,1,0,1,1
URC,3399,Ürümqi Diwopu International Airport,Urumqi,china,ZWWW,43.90710067749024,87.47419738769531,2125,8,U,Asia/Shanghai,airport,OurAirports,6.13,7,7.5,7,3,5.9,6.5,6,2.5,8.5,9,4.5,6.5,3.5,4,8,5.46,6,4,6,7,5,5.5,7,6,7,4,6,2,3519600,1,1,1,1,1,0,0.010351966873706004,0.000549171,0.10095115429817975,0.013630061066127602,0.000526462,0.004658385,0.005693582,0,0,1,1,1,1,0,1,0
NKG,3388,Nanjing Lukou Airport,Nanjing,china,ZSNJ,31.742000579833984,118.86199951171876,49,8,U,Asia/Shanghai,airport,OurAirports,6.13,7,7.5,7,3,5.9,6.5,6,2.5,8.5,9,4.5,6.5,3.5,4,8,5.46,6,4,6,7,5,5.5,7,6,7,4,6,2,9314685,1,1,1,1,1,0,0.020703933747412008,0.000917407,0.1069448615084194,0.024109906760106437,0.000934604,0.010869565217391306,0.009834369,1,2,6,14,14,1,1,1,1
TNA,4108,Yaoqiang Airport,Jinan,china,ZSJN,36.857200622558594,117.21600341796876,76,8,U,Asia/Shanghai,airport,OurAirports,6.13,7,7.5,7,3,5.9,6.5,6,2.5,8.5,9,4.5,6.5,3.5,4,8,5.46,6,4,6,7,5,5.5,7,6,7,4,6,2,8700000,1,1,1,1,1,0,0.011904761904761906,1.9999191617577623e-05,0.105248741,0.019002949939700888,0.000642599,0.007246377,0.004658385,0,0,6,9,9,1,0,1,0
TSN,3368,Tianjin Binhai International Airport,Tianjin,china,ZBTJ,39.12440109,117.3460007,10,8,U,Asia/Shanghai,airport,OurAirports,6.13,7,7.5,7,3,5.9,6.5,6,2.5,8.5,9,4.5,6.5,3.5,4,8,5.46,6,4,6,7,5,5.5,7,6,7,4,6,2,13866009,1,1,1,1,1,0,0.017598343685300208,9.865797794607182e-05,0.10538068676842999,0.021902774239971976,0.000693501,0.008799172,0.008799172,0,1,6,11,11,1,0,1,1
CSX,3371,Changsha Huanghua International Airport,Changcha,china,ZGHA,28.18919945,113.2200012,217,8,U,Asia/Shanghai,airport,OurAirports,6.13,7,7.5,7,3,5.9,6.5,6,2.5,8.5,9,4.5,6.5,3.5,4,8,5.46,6,4,6,7,5,5.5,7,6,7,4,6,2,10047900,1,1,1,1,1,0,0.02173913,0.000142226,0.10818360507801501,0.027558532481024176,0.000995151,0.011904761904761906,0.009834369,1,1,4,8,8,1,1,1,1
CZX,4109,Changzhou Benniu Airport,Changzhou,china,ZSCG,31.919701,119.778999,0,8,U,Asia/Shanghai,airport,OurAirports,6.13,7,7.5,7,3,5.9,6.5,6,2.5,8.5,9,4.5,6.5,3.5,4,8,5.46,6,4,6,7,5,5.5,7,6,7,4,6,2,4592431,1,1,1,1,1,0,0.002587992,0,0.095940466,0.007987002,0.000362639,0.002587992,0,0,0,1,2,2,1,0,1,0
DLC,3404,Zhoushuizi Airport,Dalian,china,ZYTL,38.96569824,121.53900146484376,107,8,U,Asia/Shanghai,airport,OurAirports,6.13,7,7.5,7,3,5.9,6.5,6,2.5,8.5,9,4.5,6.5,3.5,4,8,5.46,6,4,6,7,5,5.5,7,6,7,4,6,2,6690432,1,1,1,1,1,0,0.019668737060041408,0.000238031,0.10551296378111003,0.021815896444975048,0.000709039,0.007246377,0.012422360248447206,0,0,6,13,13,1,0,1,0
DYG,6353,Dayong Airport,Dayong,china,ZGDY,29.1028,110.443001,692,8,U,Asia/Shanghai,airport,OurAirports,6.13,7,7.5,7,3,5.9,6.5,6,2.5,8.5,9,4.5,6.5,3.5,4,8,5.46,6,4,6,7,5,5.5,7,6,7,4,6,2,1476521,1,1,1,1,1,0,0.003623188,4.126969035715801e-07,0.096878979,0.007678407,0.00033361,0.002070393,0.001552795,0,0,0,0,0,0,0,0,0
KHN,3384,Nanchang Changbei International Airport,Nanchang,china,ZSCN,28.864999771118164,115.9000015258789,143,8,U,Asia/Shanghai,airport,OurAirports,6.13,7,7.5,7,3,5.9,6.5,6,2.5,8.5,9,4.5,6.5,3.5,4,8,5.46,6,4,6,7,5,5.5,7,6,7,4,6,2,5042565,1,1,1,1,1,0,0.008799172,3.065588554061406e-06,0.099713714,0.014885434,0.000567608,0.005693582,0.00310559,0,0,0,3,3,1,0,0,0
LHW,3378,Lanzhou Zhongchuan Airport,Lanzhou,china,ZLLL,36.51520157,103.6200027,6388,8,U,Asia/Shanghai,airport,OurAirports,6.13,7,7.5,7,3,5.9,6.5,6,2.5,8.5,9,4.5,6.5,3.5,4,8,5.46,6,4,6,7,5,5.5,7,6,7,4,6,2,4359446,1,1,1,1,1,0,0.010351966873706004,0.000658348,0.10010956071331996,0.015184932886165438,0.000902131,0.00621118,0.004140787,0,0,5,6,6,1,0,1,0
LJG,4033,Lijiang Airport,Lijiang,china,ZPLJ,26.68000031,100.2460022,0,8,U,Asia/Shanghai,airport,OurAirports,6.13,7,7.5,7,3,5.9,6.5,6,2.5,8.5,9,4.5,6.5,3.5,4,8,5.46,6,4,6,7,5,5.5,7,6,7,4,6,2,1244769,1,1,1,1,1,0,0.004658385,3.619874541383973e-06,0.084537708,0.006465907,0.000488834,0.002587992,0.002070393,0,0,0,0,0,0,0,0,0
LXA,4097,Lhasa Gonggar Airport,Lhasa,china,ZULS,29.29780006,90.91190338,11713,8,U,Asia/Shanghai,airport,OurAirports,6.13,7,7.5,7,3,5.9,6.5,6,2.5,8.5,9,4.5,6.5,3.5,4,8,5.46,6,4,6,7,5,5.5,7,6,7,4,6,2,279074,1,1,1,1,1,0,0.001552795,0,0.0938401,0.004699254,0.000290772,0.001552795,0,0,0,0,0,0,0,0,0,0
NGB,3387,Ningbo Lishe International Airport,Ninbo,china,ZSNB,29.82670021057129,121.46199798583984,13,8,U,Asia/Shanghai,airport,OurAirports,6.13,7,7.5,7,3,5.9,6.5,6,2.5,8.5,9,4.5,6.5,3.5,4,8,5.46,6,4,6,7,5,5.5,7,6,7,4,6,2,7639000,1,1,1,1,1,0,0.012422360248447206,6.988947701658083e-06,0.098161146,0.017376654007857185,0.00068266,0.007246377,0.005175983,1,0,1,5,5,1,1,1,0
NNG,3373,Nanning Wuxu Airport,Nanning,china,ZGNN,22.608299255371094,108.1719970703125,421,8,U,Asia/Shanghai,airport,OurAirports,6.13,7,7.5,7,3,5.9,6.5,6,2.5,8.5,9,4.5,6.5,3.5,4,8,5.46,6,4,6,7,5,5.5,7,6,7,4,6,2,7254100,1,1,1,1,1,0,0.014492753623188408,0.000153997,0.10662832280628033,0.024521451,0.000986671,0.010351966873706004,0.004140787,1,0,7,8,8,1,1,1,0
PEK,3364,Beijing Capital International Airport,Beijing,china,ZBAA,40.08010101,116.58499908447266,116,8,U,Asia/Shanghai,airport,OurAirports,6.13,7,7.5,7,3,5.9,6.5,6,2.5,8.5,9,4.5,6.5,3.5,4,8,5.46,6,4,6,7,5,5.5,7,6,7,4,6,2,21893095,1,1,1,1,1,0,0.074534161,0.017019361130891517,0.1204278812974465,0.042447732,0.001662052,0.023809524,0.050724637681159424,3,1,11,14,20,1,1,1,1
PVG,3406,Shanghai Pudong International Airport,Shanghai,china,ZSPD,31.143400192260746,121.80500030517578,13,8,U,Asia/Shanghai,airport,OurAirports,6.13,7,7.5,7,3,5.9,6.5,6,2.5,8.5,9,4.5,6.5,3.5,4,8,5.46,6,4,6,7,5,5.5,7,6,7,4,6,2,24870895,1,1,1,1,1,0,0.066252588,0.012085136977953685,0.12025559534423128,0.043259828,0.001650326,0.02173913,0.044513458,0,5,28,45,50,1,0,1,1
SYD,3361,Sydney Kingsford Smith International Airport,Sydney,australia,YSSY,-33.94609833,151.177002,21,10,O,Australia/Sydney,airport,OurAirports,4.25,5,6,2,4,3.75,3.5,3,3.5,3,3.5,2,3.5,5,3.5,7,7.96,8,8.5,9,8,8,8,9,7,7,7.5,7.5,8,5367206,1,1,0,1,1,0,0.034161490683229816,0.004985263,0.10649323624867102,0.012489276978802498,0.0004456,0.007763975,0.026397515527950312,2,0,1,4,4,1,1,1,0
SYX,4030,Sanya Phoenix International Airport,Sanya,china,ZJSY,18.30290031433105,109.41200256347656,92,8,U,Asia/Shanghai,airport,OurAirports,6.13,7,7.5,7,3,5.9,6.5,6,2.5,8.5,9,4.5,6.5,3.5,4,8,5.46,6,4,6,7,5,5.5,7,6,7,4,6,2,685408,1,1,1,1,1,0,0.015527950310559008,2.459216515342674e-05,0.10450724551879527,0.027744146944107862,0.001105356,0.010351966873706004,0.005175983,1,0,1,3,3,1,1,1,0
SZX,3374,Shenzhen Bao'an International Airport,Shenzhen,china,ZGSZ,22.639299392700195,113.81099700927734,13,8,U,Asia/Shanghai,airport,OurAirports,6.13,7,7.5,7,3,5.9,6.5,6,2.5,8.5,9,4.5,6.5,3.5,4,8,5.46,6,4,6,7,5,5.5,7,6,7,4,6,2,17560000,1,1,1,1,1,0,0.027950310559006212,0.0008773,0.1038188486771729,0.032947861,0.001688241,0.016563146997929608,0.011387163561076606,1,2,5,30,30,1,1,1,1
TSA,2275,Taipei Songshan Airport,Taipei,taiwan,RCSS,25.06940078735352,121.552002,18,8,U,Asia/Taipei,airport,OurAirports,5.5,5,6,5.5,5,5,5.5,5.5,5,4,5,4.5,5,5.5,5,5.5,6,5,5,7,6.5,5.5,6,6,5.5,6,5.5,5.5,6,2646204,0,0,0,0,0,0,0.009834369,0.000563738,0.09936012,0.010121343983529622,0.000541329,0.004140787,0.005693582,1,2,6,8,14,1,1,1,1
TYN,3369,Taiyuan Wusu Airport,Taiyuan,china,ZBYN,37.74689865112305,112.62799835205078,2575,8,U,Asia/Shanghai,airport,OurAirports,6.13,7,7.5,7,3,5.9,6.5,6,2.5,8.5,9,4.5,6.5,3.5,4,8,5.46,6,4,6,7,5,5.5,7,6,7,4,6,2,4201591,1,1,1,1,1,0,0.010869565217391306,1.0724323415540904e-05,0.10042850793980605,0.022368423,0.000815949,0.007763975,0.00310559,0,0,0,0,0,0,0,0,0
WUH,3376,Wuhan Tianhe International Airport,Wuhan,china,ZHHH,30.7838,114.208,113,8,U,Asia/Shanghai,airport,OurAirports,6.13,7,7.5,7,3,5.9,6.5,6,2.5,8.5,9,4.5,6.5,3.5,4,8,5.46,6,4,6,7,5,5.5,7,6,7,4,6,2,4593410,1,1,1,1,1,0,0.022256729,0.001721436,0.10772147946896754,0.03603676,0.001599866,0.015527950310559008,0.006728778,0,1,9,16,16,1,0,1,1
WUX,6390,Sunan Shuofang International Airport,Wuxi,china,ZSWX,31.49440002,120.4290009,24,8,U,Asia/Shanghai,airport,OurAirports,6.13,7,7.5,7,3,5.9,6.5,6,2.5,8.5,9,4.5,6.5,3.5,4,8,5.46,6,4,6,7,5,5.5,7,6,7,4,6,2,6553000,1,1,1,1,1,0,0.006728778,9.046330838913236e-06,0.097553572,0.015806632,0.000641622,0.005175983,0.001552795,1,0,2,7,7,1,1,1,0
XNN,6366,Xining Caojiabu Airport,Xining,china,ZLXN,36.5275,102.042999,7119,8,U,Asia/Shanghai,airport,OurAirports,6.13,7,7.5,7,3,5.9,6.5,6,2.5,8.5,9,4.5,6.5,3.5,4,8,5.46,6,4,6,7,5,5.5,7,6,7,4,6,2,2208708,1,1,1,1,1,0,0.002070393,0,0.090031708,0.004903497,0.000361682,0.002070393,0,0,0,1,1,1,1,0,1,0
YIH,6361,Yichang Sanxia Airport,Yichang,china,ZHYC,30.55655,111.479988,673,8,U,Asia/Shanghai,airport,OurAirports,6.13,7,7.5,7,3,5.9,6.5,6,2.5,8.5,9,4.5,6.5,3.5,4,8,5.46,6,4,6,7,5,5.5,7,6,7,4,6,2,4059686,1,1,1,1,1,0,0.003623188,0,0.097871156,0.011345147762458502,0.00048548,0.003623188,0,0,0,0,0,0,0,0,0,0
ZHA,6357,Zhanjiang Airport,Zhanjiang,china,ZGZJ,21.214399,110.358002,125,8,U,Asia/Shanghai,airport,OurAirports,6.13,7,7.5,7,3,5.9,6.5,6,2.5,8.5,9,4.5,6.5,3.5,4,8,5.46,6,4,6,7,5,5.5,7,6,7,4,6,2,6994832,1,1,1,1,1,0,0.004658385,0,0.099215013,0.012850879165851328,0.000473422,0.004658385,0,0,0,1,3,3,1,0,1,0
FOC,3385,Fuzhou Changle International Airport,Fuzhou,china,ZSFZ,25.93510055541992,119.66300201416016,46,8,U,Asia/Shanghai,airport,OurAirports,6.13,7,7.5,7,3,5.9,6.5,6,2.5,8.5,9,4.5,6.5,3.5,4,8,5.46,6,4,6,7,5,5.5,7,6,7,4,6,2,8291268,1,1,1,1,1,0,0.00931677,4.528952782578771e-06,0.10538068676842999,0.020842729,0.000720456,0.008281573,0.001035197,0,0,5,8,9,1,0,1,0
SHE,4144,Taoxian Airport,Shenyang,china,ZYTX,41.63980102539063,123.48300170898438,198,8,U,Asia/Shanghai,airport,OurAirports,6.13,7,7.5,7,3,5.9,6.5,6,2.5,8.5,9,4.5,6.5,3.5,4,8,5.46,6,4,6,7,5,5.5,7,6,7,4,6,2,8294171,1,1,1,1,1,0,0.013975155279503106,0.000234551,0.10433429186464749,0.028440927,0.00123237,0.010351966873706004,0.003623188,0,0,1,4,4,1,0,1,0
WNZ,6392,Wenzhou Longwan International Airport,Wenzhou,china,ZSWZ,27.912201,120.851997,0,8,U,Asia/Shanghai,airport,OurAirports,6.13,7,7.5,7,3,5.9,6.5,6,2.5,8.5,9,4.5,6.5,3.5,4,8,5.46,6,4,6,7,5,5.5,7,6,7,4,6,2,9190000,1,1,1,1,1,0,0.007246377,1.5797144227711037e-05,0.10326616848355977,0.017283651676831262,0.000619636,0.005693582,0.001552795,0,0,4,4,4,1,0,1,0
XMN,3383,Xiamen Gaoqi International Airport,Xiamen,china,ZSAM,24.54400062561035,118.12799835205078,59,8,U,Asia/Shanghai,airport,OurAirports,6.13,7,7.5,7,3,5.9,6.5,6,2.5,8.5,9,4.5,6.5,3.5,4,8,5.46,6,4,6,7,5,5.5,7,6,7,4,6,2,5163970,1,1,1,1,1,0,0.031573499,0.00235494,0.11178013450215114,0.038878454,0.001844922,0.017598343685300208,0.013975155279503106,1,1,10,17,19,1,1,1,1
DCY,9310,Daocheng Yading Airport,Daocheng,china,ZUDC,29.323056,100.053333,14472,8,N,Asia/Shanghai,airport,OurAirports,6.13,7,7.5,7,3,5.9,6.5,6,2.5,8.5,9,4.5,6.5,3.5,4,8,5.46,6,4,6,7,5,5.5,7,6,7,4,6,2,31113,1,1,1,1,1,0,0.000517598,0,0.089553494,0.001832865,0.000264164,0.000517598,0,0,0,0,0,0,0,0,0,0
DSN,6434,Ordos Ejin Horo Airport,Dongsheng,china,ZBDS,39.49,109.8613889,4557,8,N,Asia/Shanghai,airport,OurAirports,6.13,7,7.5,7,3,5.9,6.5,6,2.5,8.5,9,4.5,6.5,3.5,4,8,5.46,6,4,6,7,5,5.5,7,6,7,4,6,2,128000,1,1,1,1,1,0,0.001035197,0,0.090677328,0.002168808,0.000317865,0.001035197,0,0,0,1,1,1,1,0,1,0
HDG,8407,Handan Airport,Handan,china,ZBHD,36.52583333,114.4255556,229,8,N,Asia/Shanghai,airport,OurAirports,6.13,7,7.5,7,3,5.9,6.5,6,2.5,8.5,9,4.5,6.5,3.5,4,8,5.46,6,4,6,7,5,5.5,7,6,7,4,6,2,9433000,1,1,1,1,1,0,0.000517598,0,0.089553494,0.001832865,0.000264164,0.000517598,0,0,1,1,1,1,1,0,1,1
HET,6345,Baita International Airport,Hohhot,china,ZBHH,40.851398,111.823997,3556,8,U,Asia/Shanghai,airport,OurAirports,6.13,7,7.5,7,3,5.9,6.5,6,2.5,8.5,9,4.5,6.5,3.5,4,8,5.46,6,4,6,7,5,5.5,7,6,7,4,6,2,2866615,1,1,1,1,1,0,0.004658385,0.000187998,0.096103652,0.009710121,0.000490175,0.003623188,0.001035197,0,0,0,0,0,0,0,0,0
HFE,3389,Hefei Luogang International Airport,Hefei,china,ZSOF,31.780000686645508,117.2979965209961,108,8,U,Asia/Shanghai,airport,OurAirports,6.13,7,7.5,7,3,5.9,6.5,6,2.5,8.5,9,4.5,6.5,3.5,4,8,5.46,6,4,6,7,5,5.5,7,6,7,4,6,2,7965300,1,1,1,1,1,0,0.008281573,1.8230930361013302e-06,0.10352051865223849,0.020912621948934132,0.000784437,0.007246377,0.001035197,0,0,1,1,1,1,0,1,0
ICN,3930,Incheon International Airport,Seoul,south korea,RKSI,37.46910095214844,126.45099639892578,23,9,U,Asia/Seoul,airport,OurAirports,5.88,6.5,6,4.5,6.5,5.3,8.5,5.5,8,7.5,7,8,2,1.5,4,1,7.54,8,7,8,8,8.5,8,7,7,6.5,6.5,8,8,9733509,1,0,0,0,0,0,0.051242236,0.007906704,0.11509629549833546,0.033275052883576475,0.00131793,0.019151138716356108,0.032091097308488616,2,2,2,0,6,1,1,1,1
JHG,3381,Xishuangbanna Gasa Airport,Jinghonggasa,china,ZPJH,21.973899841308597,100.76000213623048,1815,8,U,Asia/Shanghai,airport,OurAirports,6.13,7,7.5,7,3,5.9,6.5,6,2.5,8.5,9,4.5,6.5,3.5,4,8,5.46,6,4,6,7,5,5.5,7,6,7,4,6,2,51535,1,1,1,1,1,0,0.002070393,0,0.087327026,0.003525066,0.000432078,0.002070393,0,0,0,0,0,0,0,0,0,0
KOW,6379,Ganzhou Airport,Ganzhou,china,ZSGZ,25.853333,114.778889,387,8,U,Asia/Shanghai,airport,OurAirports,6.13,7,7.5,7,3,5.9,6.5,6,2.5,8.5,9,4.5,6.5,3.5,4,8,5.46,6,4,6,7,5,5.5,7,6,7,4,6,2,8368447,1,1,1,1,1,0,0.002070393,0,0.097082176,0.007107718,0.000307413,0.002070393,0,0,0,0,0,0,0,0,0,0
KWE,3394,Longdongbao Airport,Guiyang,china,ZUGY,26.53849983215332,106.8010025024414,3736,8,U,Asia/Shanghai,airport,OurAirports,6.13,7,7.5,7,3,5.9,6.5,6,2.5,8.5,9,4.5,6.5,3.5,4,8,5.46,6,4,6,7,5,5.5,7,6,7,4,6,2,4696800,1,1,1,1,1,0,0.010869565217391306,0.000167581,0.10242728815469251,0.024140977405166655,0.001310287,0.008799172,0.002070393,1,0,1,4,4,1,1,1,0
LUM,6376,Mangshi Airport,Luxi,china,ZPLX,24.4011,98.5317,2890,8,U,Asia/Shanghai,airport,OurAirports,6.13,7,7.5,7,3,5.9,6.5,6,2.5,8.5,9,4.5,6.5,3.5,4,8,5.46,6,4,6,7,5,5.5,7,6,7,4,6,2,313300,1,1,1,1,1,0,0.001035197,0,0.082707768,0.001233464,0.000297597,0.000517598,0.000517598,1,0,0,0,1,1,1,0,0
LZY,6402,Nyingchi Airport,Nyingchi,china,ZUNZ,29.303300857543945,94.33529663085938,9675,8,U,Asia/Shanghai,airport,OurAirports,6.13,7,7.5,7,3,5.9,6.5,6,2.5,8.5,9,4.5,6.5,3.5,4,8,5.46,6,4,6,7,5,5.5,7,6,7,4,6,2,164331,1,1,1,1,1,0,0.000517598,0,0.089553494,0.001832865,0.000264164,0.000517598,0,0,0,0,0,0,0,0,0,0
MEL,3339,Melbourne International Airport,Melbourne,australia,YMML,-37.673302,144.843002,434,10,O,Australia/Hobart,airport,OurAirports,4.25,5,6,2,4,3.75,3.5,3,3.5,3,3.5,2,3.5,5,3.5,7,7.96,8,8.5,9,8,8,8,9,7,7,7.5,7.5,8,5159211,1,1,0,1,1,0,0.025362318840579712,0.002120069,0.10649323624867102,0.012880066852622031,0.000447844,0.007763975,0.017598343685300208,0,0,2,3,3,1,0,1,0
SJW,6347,Shijiazhuang Daguocun International Airport,Shijiazhuang,china,ZBSJ,38.28070068359375,114.6969985961914,233,8,U,Asia/Shanghai,airport,OurAirports,6.13,7,7.5,7,3,5.9,6.5,6,2.5,8.5,9,4.5,6.5,3.5,4,8,5.46,6,4,6,7,5,5.5,7,6,7,4,6,2,11031200,1,1,1,1,1,0,0.012939958592132506,0.00055233,0.096213653,0.016455946634956004,0.001034047,0.006728778,0.00621118,0,0,2,2,2,1,0,1,0
TAO,3390,Liuting Airport,Qingdao,china,ZSQD,36.26610184,120.3740005,33,8,U,Asia/Shanghai,airport,OurAirports,6.13,7,7.5,7,3,5.9,6.5,6,2.5,8.5,9,4.5,6.5,3.5,4,8,5.46,6,4,6,7,5,5.5,7,6,7,4,6,2,10070000,1,1,1,1,1,0,0.026915113871635612,0.001839012,0.11685634079557598,0.048307609,0.00229908,0.016045548654244308,0.010869565217391306,3,2,15,26,26,1,1,1,1
WXN,6403,Wanxian Airport,Wanxian,china,ZUWX,30.8017,108.433,0,8,U,Asia/Shanghai,airport,OurAirports,6.13,7,7.5,7,3,5.9,6.5,6,2.5,8.5,9,4.5,6.5,3.5,4,8,5.46,6,4,6,7,5,5.5,7,6,7,4,6,2,1753500,1,1,1,1,1,0,0.000517598,0,0.089553494,0.001832865,0.000264164,0.000517598,0,0,0,0,0,0,0,0,0,0
XUZ,4149,Xuzhou Guanyin Airport,Xuzhou,china,ZSXZ,34.059056,117.555278,0,8,U,Asia/Shanghai,airport,OurAirports,6.13,7,7.5,7,3,5.9,6.5,6,2.5,8.5,9,4.5,6.5,3.5,4,8,5.46,6,4,6,7,5,5.5,7,6,7,4,6,2,8577225,1,1,1,1,1,0,0.002070393,0,0.091929869,0.005382009,0.00037085,0.002070393,0,0,0,0,0,0,0,0,0,0
YTY,8876,Yangzhou Taizhou Airport,Yangzhou,china,ZSYA,32.5634,119.7198,7,8,N,Asia/Shanghai,airport,OurAirports,6.13,7,7.5,7,3,5.9,6.5,6,2.5,8.5,9,4.5,6.5,3.5,4,8,5.46,6,4,6,7,5,5.5,7,6,7,4,6,2,4459760,1,1,1,1,1,0,0.001552795,0,0.090872824,0.004776753,0.000338708,0.001552795,0,0,0,0,0,0,0,0,0,0
ZUH,6355,Zhuhai Jinwan Airport,Zhuhai,china,ZGSD,22.006399,113.375999,23,8,U,Asia/Shanghai,airport,OurAirports,6.13,7,7.5,7,3,5.9,6.5,6,2.5,8.5,9,4.5,6.5,3.5,4,8,5.46,6,4,6,7,5,5.5,7,6,7,4,6,2,1562530,1,1,1,1,1,0,0.008281573,1.6340482265598995e-07,0.098699015,0.020413458022090023,0.001146161,0.007763975,0.000517598,0,0,0,0,0,0,0,0,0
DAT,6344,Datong Airport,Datong,china,ZBDT,40.060299,113.482002,3442,8,U,Asia/Shanghai,airport,OurAirports,6.13,7,7.5,7,3,5.9,6.5,6,2.5,8.5,9,4.5,6.5,3.5,4,8,5.46,6,4,6,7,5,5.5,7,6,7,4,6,2,3318057,1,1,1,1,1,0,0.000517598,0,0.090450311,0.00216722,0.00026306,0.000517598,0,0,0,0,0,0,0,0,0,0
DNH,4308,Dunhuang Airport,Dunhuang,china,ZLDH,40.16109848022461,94.80919647216795,0,8,U,Asia/Shanghai,airport,OurAirports,6.13,7,7.5,7,3,5.9,6.5,6,2.5,8.5,9,4.5,6.5,3.5,4,8,5.46,6,4,6,7,5,5.5,7,6,7,4,6,2,186027,1,1,1,1,1,0,0.001035197,0,0.078833874,0.001500615,0.000354444,0.001035197,0,0,0,0,0,0,0,0,0,0
NZH,6954,Manzhouli Xijiao Airport,Manzhouli,china,ZBMZ,49.566667,117.33,2231,8,U,Asia/Shanghai,airport,OurAirports,6.13,7,7.5,7,3,5.9,6.5,6,2.5,8.5,9,4.5,6.5,3.5,4,8,5.46,6,4,6,7,5,5.5,7,6,7,4,6,2,212000,1,1,1,1,1,0,0.000517598,0,0.090547464,0.002126554,0.000261157,0.000517598,0,0,0,0,0,0,0,0,0,0
KWL,3372,Guilin Liangjiang International Airport,Guilin,china,ZGKL,25.21809959411621,110.03900146484376,570,8,U,Asia/Shanghai,airport,OurAirports,6.13,7,7.5,7,3,5.9,6.5,6,2.5,8.5,9,4.5,6.5,3.5,4,8,5.46,6,4,6,7,5,5.5,7,6,7,4,6,2,4747963,1,1,1,1,1,0,0.005175983,0,0.096269154,0.012697409015054098,0.000598584,0.005175983,0,0,0,0,2,2,1,0,0,0
JJN,6386,Quanzhou Jinjiang International Airport,Quanzhou,china,ZSQZ,24.7964,118.589996,0,8,U,Asia/Shanghai,airport,OurAirports,6.13,7,7.5,7,3,5.9,6.5,6,2.5,8.5,9,4.5,6.5,3.5,4,8,5.46,6,4,6,7,5,5.5,7,6,7,4,6,2,8128530,1,1,1,1,1,0,0.004658385,2.95092816517108e-05,0.10046851929755099,0.009453438,0.000605199,0.004140787,0.000517598,0,0,4,4,4,1,0,1,0
KHG,3397,Kashgar Airport,Kashi,china,ZWSH,39.54290009,76.01999664,4529,8,U,Asia/Shanghai,airport,OurAirports,6.13,7,7.5,7,3,5.9,6.5,6,2.5,8.5,9,4.5,6.5,3.5,4,8,5.46,6,4,6,7,5,5.5,7,6,7,4,6,2,711300,1,1,1,1,1,0,0.001035197,0,0.079378239,0.001422705,0.000299588,0.001035197,0,0,0,0,0,0,0,0,0,0
MIG,6400,Mianyang Airport,Mianyang,china,ZUMY,31.42810059,104.74099731445312,0,8,U,Asia/Shanghai,airport,OurAirports,6.13,7,7.5,7,3,5.9,6.5,6,2.5,8.5,9,4.5,6.5,3.5,4,8,5.46,6,4,6,7,5,5.5,7,6,7,4,6,2,4613871,1,1,1,1,1,0,0.002070393,0,0.097007698,0.008121241,0.000356768,0.002070393,0,0,0,0,0,0,0,0,0,0
LYI,6385,Shubuling Airport,Linyi,china,ZSLY,35.04610061645508,118.41200256347656,0,8,U,Asia/Shanghai,airport,OurAirports,6.13,7,7.5,7,3,5.9,6.5,6,2.5,8.5,9,4.5,6.5,3.5,4,8,5.46,6,4,6,7,5,5.5,7,6,7,4,6,2,10667100,1,1,1,1,1,0,0.002070393,0,0.09123343,0.005423716,0.000514541,0.002070393,0,0,0,0,1,1,1,0,0,0
NTG,5475,Nantong Airport,Nantong,china,,32.0708,120.976,0,8,U,Asia/Shanghai,airport,User,6.13,7,7.5,7,3,5.9,6.5,6,2.5,8.5,9,4.5,6.5,3.5,4,8,5.46,6,4,6,7,5,5.5,7,6,7,4,6,2,7282835,1,1,1,1,1,0,0.002587992,0,0.095541771,0.008441373,0.000468232,0.002587992,0,0,0,1,0,1,1,0,1,0
YVR,156,Vancouver International Airport,Vancouver,canada,CYVR,49.19390106,-123.1839981,14,-8,A,America/Vancouver,airport,OurAirports,3.88,5,4,2,4.5,3.45,3.5,4,2.5,2,3,3,5,3.5,3,5,7.25,7.5,7,8,8,7,7,6,6.5,7.5,8.5,6,8,631486,1,1,0,1,0,0,0.038302277432712216,0.004807431,0.11148363547164146,0.017724674,0.000641151,0.008799172,0.029503105590062115,3,0,0,0,3,1,1,0,0
YBP,4110,Yibin Caiba Airport,Yibin,china,ZUYB,28.80055556,104.545,924,8,U,Asia/Shanghai,airport,OurAirports,6.13,7,7.5,7,3,5.9,6.5,6,2.5,8.5,9,4.5,6.5,3.5,4,8,5.46,6,4,6,7,5,5.5,7,6,7,4,6,2,4471896,1,1,1,1,1,0,0.001035197,0,0.093458636,0.004293774,0.000277391,0.001035197,0,0,0,0,0,0,0,0,0,0
UYN,6368,Yulin Yuyang Airport,Yulin,china,ZLYL,38.35971,109.590927,0,8,U,Asia/Shanghai,airport,OurAirports,6.13,7,7.5,7,3,5.9,6.5,6,2.5,8.5,9,4.5,6.5,3.5,4,8,5.46,6,4,6,7,5,5.5,7,6,7,4,6,2,5849700,1,1,1,1,1,0,0.000517598,0,0.078248474,0.000739836,0.000259104,0.000517598,0,0,0,0,0,0,0,0,0,0
LAS,3877,McCarran International Airport,Las Vegas,united states,KLAS,36.08010101,-115.1520004,2181,-8,A,America/Los_Angeles,airport,OurAirports,5.5,5,6.5,5,5.5,5.5,5.5,4.5,6.5,2.5,5.5,4.5,6.5,7,5,7.5,6.58,4.5,5.5,7,6.5,6,8,6.5,6.5,8,7,6,7.5,644644,1,1,1,0,0,0,0.066770186,0.002701011,0.10935645422239938,0.015989439375539337,0.000371508,0.008281573,0.058488613,0,0,0,0,0,0,0,0,0
LAX,3484,Los Angeles International Airport,Los Angeles,united states,KLAX,33.94250107,-118.4079971,125,-8,A,America/Los_Angeles,airport,OurAirports,5.5,5,6.5,5,5.5,5.5,5.5,4.5,6.5,2.5,5.5,4.5,6.5,7,5,7.5,6.58,4.5,5.5,7,6.5,6,8,6.5,6.5,8,7,6,7.5,3990456,1,1,1,0,0,0,0.079710145,0.013450151095819452,0.12008380163659667,0.029664555,0.000517761,0.017080745341614908,0.0626294,1,1,3,4,6,1,1,1,1
CAI,1128,Cairo International Airport,Cairo,egypt,HECA,30.12190055847168,31.40559959411621,382,2,U,Africa/Cairo,airport,OurAirports,5.38,3,5.5,8,5,4.95,5.5,5.5,7,1,5,4,5.5,2,7,7,4.04,3.5,3,4.5,4.5,3.5,5,6,6,4.5,3,2.5,2.5,9539673,1,0,0,0,0,0,0.039337474120082816,0.002987379,0.11426188646889578,0.016031631,0.000646878,0.010351966873706004,0.028985507246376815,9,3,0,4,15,1,1,0,1
TLV,1590,Ben Gurion International Airport,Tel-aviv,israel,LLBG,32.01139831542969,34.88669967651367,135,2,E,Asia/Jerusalem,airport,OurAirports,4.63,5.5,4,5,4,4.2,5.5,2.5,5.5,1.5,2,5.5,3,4.5,6.5,5.5,6,6,5,6,7,5,5.5,3.5,7,7,6,6,8,410000,1,0,1,0,0,0,0.038302277432712216,0.001268722,0.11594298089050713,0.020646341651741267,0.000455169,0.012939958592132506,0.025362318840579712,0,1,2,2,3,1,0,1,1
EYK,8428,Beloyarskiy Airport,Beloyarsky,russia,USHY,63.686901,66.698601,82,5,N,Asia/Yekaterinburg,airport,OurAirports,6.38,4.5,7.5,8.5,5,5,5.5,5.5,5,4,5,4.5,5,5.5,5,5.5,4.04,4,3,4.5,5.5,4,4.5,5.5,4,4,2.5,3.5,3.5,19542,1,0,0,0,0,0,0.001552795,6.701169648955208e-07,0.070341976,7.942665056903892e-05,0.000254105,0.000517598,0.001035197,0,0,0,0,0,0,0,0,0
VKO,2988,Vnukovo International Airport,Moscow,russia,UUWW,55.59149933,37.26150131,685,3,N,Europe/Moscow,airport,OurAirports,6.38,4.5,7.5,8.5,5,5,5.5,5.5,5,4,5,4.5,5,5.5,5,5.5,4.04,4,3,4.5,5.5,4,4.5,5.5,4,4,2.5,3.5,3.5,11979529,1,0,0,0,0,0,0.034679089,0.003863698,0.099399284,0.006080201,0.000664793,0.007763975,0.026915113871635612,0,0,0,0,0,0,0,0,0
NCU,6151,Nukus Airport,Nukus,uzbekistan,UTNN,42.488399505615234,59.62329864501953,246,5,U,Asia/Samarkand,airport,OurAirports,5.38,5,4.5,7,5,4.55,7.5,6,3,3,3.5,6.5,6.5,1.5,4,4,3.79,3,3,4,4,3,3.5,4.5,3.5,4.5,4,5,3.5,312100,1,1,1,1,1,1,0.001035197,0,0.086718014,0.001129169,0.000250921,0.000517598,0.000517598,0,0,0,0,0,0,0,0,0
TJM,4111,Roshchino International Airport,Tyumen,russia,USTR,57.1896019,65.32430267,378,5,N,Asia/Yekaterinburg,airport,OurAirports,6.38,4.5,7.5,8.5,5,5,5.5,5.5,5,4,5,4.5,5,5.5,5,5.5,4.04,4,3,4.5,5.5,4,4.5,5.5,4,4,2.5,3.5,3.5,581758,1,0,0,0,0,0,0.008281573,0.000264859,0.087258126,0.001481197,0.000450875,0.00310559,0.005175983,0,0,0,0,0,0,0,0,0
UFA,2992,Ufa International Airport,Ufa,russia,UWUU,54.55749893,55.87440109,449,5,N,Asia/Yekaterinburg,airport,OurAirports,6.38,4.5,7.5,8.5,5,5,5.5,5.5,5,4,5,4.5,5,5.5,5,5.5,4.04,4,3,4.5,5.5,4,4.5,5.5,4,4,2.5,3.5,3.5,1062319,1,0,0,0,0,0,0.00931677,7.388846495228278e-05,0.087288329,0.001558476,0.000361088,0.003623188,0.005693582,0,0,0,0,0,0,0,0,0
NYM,6143,Nadym Airport,Nadym,russia,USMM,65.48090362548828,72.69889831542969,49,5,N,Asia/Yekaterinburg,airport,OurAirports,6.38,4.5,7.5,8.5,5,5,5.5,5.5,5,4,5,4.5,5,5.5,5,5.5,4.04,4,3,4.5,5.5,4,4.5,5.5,4,4,2.5,3.5,3.5,44594,1,0,0,0,0,0,0.002587992,0,0.091332275,0.001665441,0.000335318,0.002587992,0,0,0,0,0,0,0,0,0,0
OVS,6140,Sovetskiy Airport,Sovetskiy,russia,USHS,61.326622009277344,63.60191345214844,351,5,N,Asia/Yekaterinburg,airport,OurAirports,6.38,4.5,7.5,8.5,5,5,5.5,5.5,5,4,5,4.5,5,5.5,5,5.5,4.04,4,3,4.5,5.5,4,4.5,5.5,4,4,2.5,3.5,3.5,1280,1,0,0,0,0,0,0.000517598,0,0.070445423,7.942665056903892e-05,0.000254105,0.000517598,0,0,0,0,0,0,0,0,0,0
UCT,4368,Ukhta Airport,Ukhta,russia,UUYH,63.56689834594727,53.80469894,482,3,N,Europe/Moscow,airport,OurAirports,6.38,4.5,7.5,8.5,5,5,5.5,5.5,5,4,5,4.5,5,5.5,5,5.5,4.04,4,3,4.5,5.5,4,4.5,5.5,4,4,2.5,3.5,3.5,103541,1,0,0,0,0,0,0.001035197,0,0.081239662,0.000390947,0.000262846,0.001035197,0,0,0,0,0,0,0,0,0,0
DAC,3076,Hazrat Shahjalal International Airport,Dhaka,bangladesh,VGZR,23.843347,90.397783,30,6,U,Asia/Dhaka,airport,OurAirports,5,5.5,5.5,7,2,4.95,8,6,5,4,5,3.5,4.5,3,4,6.5,4.13,3.5,4,5.5,5,3,4,5,4.5,3.5,3.5,4,4,8906039,1,1,0,0,0,0,0.014492753623188408,0.000668556,0.1047677538167233,0.008629004,0.00036484,0.004140787,0.010351966873706004,0,0,1,2,2,1,0,1,0
CCU,3043,Netaji Subhash Chandra Bose International Airport,Kolkata,india,VECC,22.654699325561523,88.44670104980469,16,5.5,N,Asia/Calcutta,airport,OurAirports,4.75,3.5,6,6,3.5,5,5.5,5.5,5,4,5,4.5,5,5.5,5,5.5,5.25,4,5.5,7.5,4.5,5,5.5,6.5,6,5,3.5,5,5,4496694,1,1,1,1,1,0,0.017598343685300208,0.001339456,0.10046851929755099,0.004267309,0.00054941,0.00310559,0.014492753623188408,0,2,1,3,3,1,0,1,1
CGP,3069,Shah Amanat International Airport,Chittagong,bangladesh,VGEG,22.24959945678711,91.81330108642578,12,6,U,Asia/Dhaka,airport,OurAirports,5,5.5,5.5,7,2,4.95,8,6,5,4,5,3.5,4.5,3,4,6.5,4.13,3.5,4,5.5,5,3,4,5,4.5,3.5,3.5,4,4,8440000,1,1,0,0,0,0,0.003623188,4.1699468859412326e-06,0.088296913,0.001245887,0.000286291,0.002070393,0.001552795,0,0,0,0,0,0,0,0,0
MCT,2194,Muscat International Airport,Muscat,oman,OOMS,23.593299865722656,58.284400939941406,48,4,U,Asia/Muscat,airport,OurAirports,3.38,1,5,4,3.5,4.9,6,4,5,5,5,5.5,5,3,4.5,6,5.25,4.5,4.5,6.5,6.5,5.5,7.5,5.5,5,4.5,4,4,5,76344,1,0,0,0,0,0,0.025879917184265012,0.000667144,0.096619151,0.004728839,0.000385948,0.004658385,0.021221532,0,0,0,0,0,0,0,0,0
CXB,3068,Cox's Bazar Airport,Cox's Bazar,bangladesh,VGCB,21.45219993591309,91.96389770507812,12,6,U,Asia/Dhaka,airport,OurAirports,5,5.5,5.5,7,2,4.95,8,6,5,4,5,3.5,4.5,3,4,6.5,4.13,3.5,4,5.5,5,3,4,5,4.5,3.5,3.5,4,4,223522,1,1,0,0,0,0,0.000517598,0,0.081422752,0.00043227,0.00026232,0.000517598,0,0,0,0,0,0,0,0,0,0
KTM,3125,Tribhuvan International Airport,Kathmandu,nepal,VNKT,27.6966,85.3591,4390,5.75,N,Asia/Katmandu,airport,OurAirports,6.63,4.5,6.5,8.5,7,5.7,7,6.5,6,7,7,6.5,4.5,3.5,5,4,3.71,2.5,2,4.5,3.5,3,4.5,4,3,4.5,4.5,3.5,5,1442300,1,1,1,0,0,0,0.013975155279503106,0.001552268,0.10671857106934109,0.011681700944572595,0.000385898,0.005693582,0.008281573,0,1,0,2,2,1,0,0,1
